,new_address,latitude,longitude,country
0,"01-07 North Bridge Rd, Singapore 123456",1.2909969,103.8504377,SG
1,123 Genting Lane 03-01 Singapore 349574,1.3240010715423,103.878608574232,SG
2,"Admiralty Link, Block 491, Singapore 750491",1.45612169974883,103.817716476882,SG
3,"1 Scotts road, 22-14, Singapore, Singapore 228208",1.306185948,103.8319802,SG
4,Singapore 730881  12-46,1.44449517444931,103.791960857117,SG
5,Blk 406A Northshore Drive 12-140 821406,1.2909969,103.8504377,SG
6,1 Geylang East Ave 02-01 389778,1.3157909524453,103.884466818322,SG
7,"Mg Comm (Commercial), Block 178 Toa Payoh Central, 01-234, Singapore, Singapore 310178",1.33357691776726,103.849241366238,SG
8,"21 Pandan Ave 05-06 609388 Senkee Logistics Singapore, 05-06 Singapore",1.3008982,103.7484271,SG
9,"46 Jalan Kuras, Singapore 577738",1.37423409930688,103.829686644188,SG
10,34 Upper Cross Street Director 17-140 Singapore 50034,1.28607403933903,103.842331362549,SG
11,12 Tai Seng Street Luxasia Building Level 2 534118,1.33773332436838,103.888163356629,SG
12,"207A, 15-944,Singapore,82  Serangoon Garden Hougang Ponggol,207A Punggol Place 821207",1.40028667914957,103.901012370724,SG
13,"Blk 20 Woodlands Link 07-15,Singapore,20 738733",1.4503751866071,103.811282798642,SG
14,"01-07 North Bridge Rd, Singapore 737775",1.43219358950188,103.799093252799,SG
15,"Bishan Street 13, Block 154, Singapore 07-14 570154",1.34662396640648,103.855027316428,SG
16,"523c Tampines Central 7, Singapore 04-105 523523",1.35989816776014,103.938871281779,SG
17,"Choa Chu Kang Avenue 4, Blk 447 06-375 Singapore 680447",1.38063288856969,103.737541642969,SG
18,"227 Pasir Ris Street 21, Singapore 08-98 510227",1.37151775467991,103.961556934875,SG
19,Blk 1 Toh Yi Drive 13-133 Singapore 590013,1.33873616445365,103.772438331828,SG
20,"12 Upper Serangoon View 01-06, Singapore Rio Vista Condominium 534199",1.37277402989226,103.901954769758,SG
21,"Blk 210,hougang Street 21,03-257 03-257 530210",1.35940177320263,103.886935405527,SG
22,Singapore 637457,1.34540041806809,103.680094247537,SG
23,Block 436C Fernvale Road 06-168 793436,1.39229826474217,103.876958922822,SG
24,356A Anchorvale Lane Plains 07-37 541356,1.393435775,103.884812,SG
25,3GambasCrescentNordcomOne0814SingaporeSingaporeSingaPore 757088,1.4441,103.8139,SG
26,"110 Woodlands Street 13, Singapore 09-136 730110",1.43760183497294,103.781577012664,SG
27,65A Jalan Tenteram 04-13 328958,1.32870274915216,103.858448904853,SG
28,Singapore 681165 09-07,1.38273704578338,103.753517098763,SG
29,"78 Dawson Rd, Singapore 141078 13-51",1.2943765,103.8102377,SG
30,"Singapore, 757088, 3 Gambas CRESCENT07-14,Singapore,75  Yishun Sembawang,3 Crescent 757088",1.4441,103.8139,SG
31,286C Compassvale Cresent 13-117 543286,1.3979,103.8964,SG
32,"42 South Buona Vista Road, Singapore 02-16 118166",1.28115860767765,103.787759973633,SG
33,"5 Lew Lian Vale, Singapore 05-14 537018",1.34825716663426,103.877167057933,SG
34,"39 Woodlands Close 06-33 Mega@woodlands  S(737856)（SG265）,Singapore,73 Kranji Woodgrove,39 737856",1.438,103.8068,SG
35,"334b Yishun Street 31, Singapore 11-97 762334",1.43253302925602,103.845705616559,SG
36,"801 French Rd, Singapore 200801 02-37",1.30736358641342,103.860462374729,SG
37,"298B Compassvale St, Singapore 542298 14-166",1.39548820726371,103.902065252439,SG
38,"Blk 1 Beach Road 01-4747,Singapore,19  Middle Golden Mile,1 190001",1.30367134973049,103.864478658739,SG
39,"Clementi Avenue 4, Singapore 120304",1.32092754693943,103.764858567412,SG
40,"19 Ubi Crescent, Level 1 408577",1.32706476869089,103.894584868497,SG
41,"152 Jalan Besar, Singapore 208870",1.30701106507831,103.85661104309,SG
42,"Hougang Street 52, Block 698D Hdb Hougang, Singapore 538698",1.37565096439394,103.888739165213,SG
43,"77 Dunlop Street (7-Eleven Pick-up point),Singapore,20  Little India,77 209404",1.30506538782811,103.853254994435,SG
44,"424d Yishun Avenue 11, Singapore 13-328 764424",1.4227488,103.8490941,SG
45,"Changi Village Road, Hawker Centre, Singapore 12 500002",1.38915174868234,103.988245790439,SG
46,"65 Sims avenue, Yi Xiu Building, 04-01, Singapore, Singapore 387418",1.3141661,103.8765353,SG
47,"53 How Sun Walk, Singapore 00-00 538467",1.34573296414152,103.877858546424,SG
48,"11a Hamilton Road, Singapore 02-00 209182",1.31146250986768,103.860775381607,SG
49,176 Orchard Road 01-K7 The Centrepoint 238843,1.301930307,103.8398132,SG
50,"6 Fishery Port Road 02,Singapore,61  Jurong,6 619747",1.31249607765687,103.721457957073,SG
51,"Oxley Bizhub, 69 Ubi Road 1, 06-23, Singapore,Singapore,40  Geylang Eunos,69 1 408731",1.331753051,103.8902465,SG
52,291 Tampines Street 22 07-438 520291,1.35001760515091,103.955180402273,SG
53,"01-07 North Bridge Rd, Singapore 007/1 370029",1.2909969,103.8504377,SG
54,"Everton Road, Singapore 17b First Floor  89373",1.27673654263003,103.837559005737,SG
55,"808d Choa Chu Kang Avenue 1, Singapore 03-614 684808",1.37483194322245,103.745547077182,SG
56,"Singapore, 60 Trevose CRESCENT, 03-29 298090",1.32302176087514,103.825299386056,SG
57,"01-253 Jewel Changi Airport, 78 Airport Boulevard, S819666 819666",1.3602082,103.9897593,SG
58,"107 Ang Mo Kio Avenue 4, Singapore 02-142 560107",1.37137680953346,103.837367201584,SG
59,161 Kampong Ampat 05-02 368329,1.33535874496114,103.883029035572,SG
60,"9 Joo Seng Road, Singapore 03-28 360009",1.3348683,103.8791035,SG
61,"28 Golden Drive, Singapore 554656",1.35506106659045,103.861938304373,SG
62,"23 Lor 3 Toa Payoh, Singapore 18-10 319582",1.33778035310224,103.846558647024,SG
63,Punggol Road Blk 195D S824195 12-542 824195,1.40149866218142,103.906986542654,SG
64,"10F Braddell Hill, Singapore 19-21 579725",1.34169233138077,103.842045941675,SG
65,"2 Science Park Drive, 03-01, Tower A Ascent, Singapore 118222",1.29080391348341,103.784486591212,SG
66,"Level 6 Loading Bay 55 Tuas Crescent,, 06-02/03, Singapore, Singapore 638743",1.3217775,103.6346108,SG
67,"22 New Industrial Road, Singapore 03-09 536208",1.3436465,103.8863974,SG
68,203 Henderson Road 04-03 Industrial Park Singapore 159546,1.28145016592655,103.821202996245,SG
69,Singapore 822105 10-09,1.39720646357096,103.906002280442,SG
70,"79 Ayer Rajah Crescent, Singapore 02-20 139955",1.29795017763166,103.787472326905,SG
71,"Singapore, 737855, 31 Woodlands CLOSE07-29,Singapore,73  Kranji Woodgrove,31 Close 737855",1.43686158492125,103.805998504039,SG
72,"119 Dover Road, Singapore Hall 3 139656",1.30211028575985,103.781258538837,SG
73,"238 Thomson Road, Velocity @ Novena Square, 02-10, Singapore, Singapore 307683",1.31978949186357,103.844033568884,SG
74,625 Aljunied Road 06-04 389835,1.32490819063998,103.879385375918,SG
75,"Liang Seah Street, Heap Seng House, Singapore 09-02 189057",1.2985175756148,103.856117214086,SG
76,93 Toa Payoh Central Community Building 319194,1.33482624861951,103.850301270401,SG
77,"26 Sungei Kadut Loop, 04-01 Singapore 729467",1.41645468209315,103.74213943202,SG
78,"113 Pasir Ris Grove, 635 Singapore 518171",1.36968069137475,103.944502427167,SG
79,"9E Jalan Berjaya, Singapore 578614",1.35384279820995,103.844559687393,SG
80,"Leong Huat BUILDING, 6 Harper ROAD, 05-05 , Singapore, Singapore 369674",1.33522165849355,103.887465923477,SG
81,"120 Lower Delta Road Cendex Center, 02-03,Singapore,16  Queenstown Tiong Bahru,120 169208",1.279953974,103.8227889,SG
82,"40 Portchester Avenue, Singapore 556322",1.3666145908655,103.86420640898,SG
83,Block 635 Jurong West Street 65 06-326 640635,1.34279239522651,103.698395933329,SG
84,"805 Bukit Timah Road, Singapore Sixth Avenue Centre 03-06 279883",1.33143230728487,103.795000696147,SG
85,"​19 Tai Seng Avenue, 06-10 534054",1.33690499145549,103.891238418719,SG
86,"537 Woodlands Drive 16, Singapore 09-159 730547",1.43001108357736,103.793125840828,SG
87,"02-02, Beauty World Plaza, 140 Upper Bukit Timah Road, 588176,Singapore,58  Clementi Park Ulu Pandan,588176 588176",1.34178799833839,103.776304121092,SG
88,Singapore 541289 Blk 298A Compassvale Street,1.3977,103.8977,SG
89,"05-01, 49 Pandan Road, Singapore 609290",1.30252932321985,103.746347602242,SG
90,"313B Sumang Link 06-129,Singapore,82  Serangoon Garden Hougang Ponggol,313B 822313",1.4102395473284,103.902143588421,SG
91,"205 Henderson Road, 04-02 159549",1.28087698205303,103.820445705486,SG
92,Singapore 680427 410637,1.3310558349111,103.903932628259,SG
93,"110A Bidadari Park Drive, 03-218 Singapore 341110",1.3334842,103.8731472,SG
94,"703 Woodlands Drive 40, Singapore 06-68 730703",1.44094745423679,103.796576587073,SG
95,"222 Bishan Street 23, Block 222, Singapore 570222 08-157",1.35803232591627,103.848211390707,SG
96,"52A Toh Tuck Road, Singapore 05-04 596744",1.34200111071714,103.769739217254,SG
97,"57 Ubi Ave 105-04,Singapore,57 Avenue 1 408936",1.32485259848073,103.895154714406,SG
98,"Singapore,Singapore,75  Yishun Sembawang,10 Admiralty Street 757695",1.4624495,103.8103428,SG
99,"631 Ang Mo Kio Avenue 4, Singapore 09-922 560631",1.3795579769264,103.840744441881,SG
100,"Woodlands Drive 70, Singapore 09-118 730717",1.44087127807081,103.79948853701,SG
101,421 Tagore Industrial Avenue 8 02-13 787805,1.38441781305137,103.82719075796,SG
102,8 ST. Thomas Walk Saint 238146,1.29613676859014,103.836293963674,SG
103,"131A Lorong 1 Toa Payoh, 12-532 Singapore 311131",1.33827028191252,103.843283876642,SG
104,"111 Yishun Ring Road, Singapore 03-363 760111",1.43320979702591,103.828616310578,SG
105,Jurong West St 73 Blk 750 05-151 640750,1.34793171145546,103.699193160516,SG
106,"Singapore,106D Punggol FIELD,Blk 106D Field 04-502 824106",1.39753010806116,103.9072414781,SG
107,"246 Bishan Street 22, Singapore 02-332 570246",1.36066100721355,103.843366623212,SG
108,"Blk 262 Toa Payoh East 21-12,Singapore,262 310262",1.333204404,103.8556183,SG
109,"13 Jalan Kilang,Singapore,15  Queenstown Tiong Bahru,13 Kilang 159413",1.28533126550507,103.808570411282,SG
110,Singapore 350107 06-476,1.33458504149434,103.868303663992,SG
111,"65 Ubi Road 1 02-59 Oxley Bizhub,Singapore,40  Geylang Eunos,65 408729",1.3324954869958,103.890184728797,SG
112,Ych (Amore Pacific) 8 Bulim Avenue 05-07A 648166,1.3529,103.7093,SG
113,Blk 244 Jurong East Street 24 09-575 600244,1.34262960455401,103.74211362096,SG
114,"202 Kallang Bahru, 02-36,Singapore,33  Balestier Toa Payoh Serangoon,202 Bahru 339339",1.31573710555268,103.865533712232,SG
115,"280 Woodlands Industrial Park E5,  Singapore 02-11 757322",1.4512942017493,103.79115165295,SG
116,"3 Ang Mo Kio Street 62  01-26/27 Link@amk AIBI,Singapore,56 Bishan Kio,3 569139",1.38645291189388,103.844788849524,SG
117,"1 Tanah Merah Kechil Road, Singapore 13-05 466663",1.32671436297881,103.94350839776,SG
118,"27 Paya Lebar Road, Singapore Residences 04-02 409042",1.31752143817066,103.891475655246,SG
119,"31 Bukit Batok Crescent, The Splendour,Singapore,31 Crescent 658070",1.33684609413655,103.758602036443,SG
120,"511A Yishun Street 51, Singapore 02-423 761511",1.4163689,103.8433093,SG
121,"14 Scotts Road, Singapore 02-54 228213",1.30724675158526,103.833664932435,SG
122,825 Mountbatten Road 04-02 437818,1.30269302488453,103.897868726657,SG
123,"342A Yishun Ring Road, Singapore 03-1908 761342",1.43056545630748,103.844333647879,SG
124,Singapore 560549 10-2022,1.37316322001192,103.857414097369,SG
125,Block 135 Bishan Street 12 03-404 570135,1.3445621501274,103.851287296909,SG
126,"1 Paya Lebar Crescent, Singapore 536019",1.34981353786369,103.880745484938,SG
127,"5 Toh Guan Road East 01-07/09,Singapore,60  Jurong,5 608831",1.34033344455189,103.749783057743,SG
128,Singapore 521139 Blk 139 Tampines St 11 03-80,1.346653,103.944868,SG
129,"80 Marine Parade Road, Singapore 10-06 449269",1.30108003332696,103.905281814646,SG
130,"30 Segar Road, Singapore 06-06 677721",1.38930251363574,103.770291882102,SG
131,"34 Boon Leat Terrace 02-01,Singapore,11  Pasir Panjang Hong Leong Garden Clementi New Town,34 119866",1.27604881582783,103.797187040346,SG
132,"514 Chai Chee Lane 02-01,Singapore,46  Bedok Upper East Coast Eastwood Kew Drive,514 469029",1.33071656185915,103.918193912937,SG
133,Block 630 Bukit Batok Central 01-156 650630,1.35003984411905,103.749963751912,SG
134,"Primz BizHub, 21 Woodlands Close, 09-17 , Singapore, Singapore 737854",1.43507882836937,103.804762690915,SG
135,"49 Jalan Pemimpin, Aps Industrial Building, 06-07, Singapore, Singapore 577203",1.35102434692338,103.841809557384,SG
136,"19, Woodlands Industrial Park E1, 03-05,Singapore,75  Yishun Sembawang,19 E1 757719",1.45399156113707,103.795873655513,SG
137,"271C Sengkang Central, Singapore 09-283  543271",1.38506336448142,103.894520203859,SG
138,"Scotts Road, Goldbell Towers, Singapore 228233",1.31241396427268,103.837027509921,SG
139,"540 Bedok North Street 3, Singapore 05-1226 460540",1.33115402921592,103.922111753117,SG
140,"5C Toh Guan Road East, Singapore Nippon Express Singapore, Level 4M 608828",1.33818662282317,103.750734680647,SG
141,"310 Shunfu Road, Singapore 10-219 570310",1.35085490964108,103.838680002669,SG
142,Singapore 530239 09-23,1.35597338524638,103.890479102476,SG
143,"21 Siglap Bank, Singapore 456236",1.3180743,103.9208571,SG
144,"48 Strathmore Avenue, Singapore 08-231 140048",1.2938054307103,103.807785887197,SG
145,"65 Ubi Ave 1 Osim Headquarters,Singapore,40  Geylang Eunos,65 Avenue 408939",1.32446885018273,103.893564386978,SG
146,Singapore 541260 14-496,1.39312791817027,103.895564270281,SG
147,"Blk 302C Anchorvale Link 15-38, Singapore 543302",1.38803144419328,103.890280486049,SG
148,"147 Tampines Avenue 5, Singapore 521147",1.34864961788301,103.942208375878,SG
149,"Bedok North Avenue 2, Singapore Blk 418 06-67 460418",1.32856363452482,103.930039574981,SG
150,"Buangkok SQUARE, 991B, LINK, 09-237, Singapore, Singapore 532991",1.383984774,103.8824863,SG
151,24 Lucky View 467456,1.31791556874769,103.939685899857,SG
152,"100 Pasir Panjang Road, 06-02 118518",1.27543050006995,103.795761879773,SG
153,"244 Bukit Panjang Ring Road, Singapore 12-195 670244",1.38091670838781,103.771819281397,SG
154,"Blk 627 Pasir Ris DR3 02-320 Singapore 510627,Singapore,51  Tampines Ris,627 Drive 3 510627",1.37962840178038,103.940583837468,SG
155,"1 Scotts Road, Singapore 03-05 228208",1.30618594766241,103.831980208401,SG
156,"Ang Mo Kio Avenue 5, Singapore 05-4008 560538",1.37561,103.85333,SG
157,"452b Sengkang West Way, Singapore 07-403 792452",1.39359219993572,103.873975642618,SG
158,"118Q Tanah Merah Besar Lane, Singapore 498934",1.35914963063825,103.975355385884,SG
159,Blk 640 Rowell Road 01-76 200640,1.30731534590151,103.854889425215,SG
160,"498 Miltonia Close, Singapore 768179",1.41620473786103,103.846105274393,SG
161,"712 Tampines Street 71, Singapore 07-152 520712",1.358919432,103.9371609,SG
162,Block 413 Eunos Road 5 05-74 400413,1.318607589,103.8987875,SG
163,"621 Aljunied Road, 07-01, Singapore, Singapore 389834",1.324833156,103.8799677,SG
164,"Fernvale Road, High Park Residences, Blk 23, Singapore 16-11 797638",1.396949923,103.8751986,SG
165,"308A Onan Road, Singapore 424771",1.3082734151729,103.902220632522,SG
166,"Blk 239 Jurong East Street 21, 05-376 600239",1.34096353573061,103.740914967813,SG
167,Block 109 Bukit Purmei Road 01-141 90109,1.273937926,103.8253385,SG
168,11 Holland Link Eleven@Holland 275764,1.32869328774241,103.789738293324,SG
169,Singapore 520713 11-184,1.35924098285639,103.937646637753,SG
170,"Singapore,220 Tagore LANE,220 Lane Liberty Warehouse
04-03 787600",1.38750381298921,103.8306256477,SG
171,"9 King Albert PARK, 01-04 Singapore 598332",1.3368622176247,103.779286249088,SG
172,3 Anson Road 11-01 Springleaf Tower Singapore 79909,1.27509519330337,103.846245401302,SG
173,Singapore 730777 06-48,1.44786057879747,103.799327948122,SG
174,"781 Upper Changi Road East, Singapore 08-19 486069",1.34813938704414,103.962084910894,SG
175,"37 Kaki Bukit View, Singapore Level 4 415967",1.33617417884296,103.907832775863,SG
176,"2 Ewe Boon Road, Singapore 15-02 259313",1.31663757255531,103.832724096033,SG
177,"432 Clementi Ave 3, 新加坡 120432 blk432, 01-272",1.31402337284101,103.762743101737,SG
178,"Singpost Regional Ecommerce Logistics Hub, 37 Greenwich Drive, Level 2, 02-01, Loading Bays 16-19,Singapore,53  Serangoon Garden Hougang Ponggol,533864 533864",1.3692,103.9097,SG
179,15 Pandan Crescent L4 128470,1.30430002357292,103.757384222803,SG
180,"18 Sin Ming Lane, Midview City 06-16 Singapore 573960",1.35821656833273,103.833930709931,SG
181,"252 North Bridge Road, 01-42, Raffles City Shopping Centre, 179103",1.2940764448015,103.853331827201,SG
182,"35 Tannery Road, Ruby Industrial Complex, 01-01,Singapore,34  Macpherson Braddell,35 Road 347740",1.32611084877419,103.874965865324,SG
183,"15 Yishun Industrial Street 1, Singapore Win5 02-19 768091",1.43764051294192,103.844520852963,SG
184,Singapore 239519 05-01,1.29952700402899,103.840181462575,SG
185,"Isetan WAREHOUSE, 5 Kallang Pudding ROAD, 03-01 349309",1.32994408362222,103.877766814909,SG
186,"447A Bukit Batok West Avenue 9, Singapore 15-100 651447",1.35241777262815,103.739894249774,SG
187,Singapore 670605 14-41,1.38079825387267,103.761856783531,SG
188,"65 Ubi Road 1,Singapore,40  Geylang Eunos,65 1 408729",1.3324954869958,103.890184728797,SG
189,"Suntec Tower Four 34-05 6, Temasek Boulevard 38986",1.294600293,103.8596781,SG
190,"2, Jurong East St 21, Imm Building, 04-32B, Singapore, Singapore 609601",1.33431671152845,103.747242404519,SG
191,Block 719 Yishun Street 71 07-201 760719,1.42685636809948,103.829084210542,SG
192,"34 Boon Leat TERRACE, 02-01 , Singapore, Singapore 119866",1.27604881582783,103.797187040346,SG
193,"23 Kovan Road, Singapore 548193",1.36030338774957,103.883731018831,SG
194,Singapore 189350 06-03,1.3002,103.857,SG
195,"33 Jurong West Street 41, Singapore 13-54 649413",1.34627093684862,103.722845846001,SG
196,"3 Paya Lebar Crescent, Singapore 02-19 534239",1.35025662346745,103.880579427431,SG
197,"139a Lor 1A Toa Payoh, 03-46, Singapore 311139 17/38",1.3363236,103.8439085,SG
198,"93B Telok Blangah Street 31, Singapore 06-175 102093",1.2754,103.8077,SG
199,Singapore 540142,1.39003668285656,103.904990688661,SG
200,"195 Pearl's Hill Terrace, Singapore 168976 01-05",1.2840458973123,103.841448753447,SG
201,"13 Joo Koon Cres Singapore 629021, 13 629021",1.32969269855261,103.674079378487,SG
202,"Singapore,Singapore,20  Little India,31 Cavan Road 209857",1.31117092233724,103.861546141973,SG
203,"274C Punggol Place, Singapore 02-836 823274",1.40325721331338,103.902008940682,SG
204,"110 Rivervale Walk, Singapore 10-10 540110",1.38366379870545,103.900139921488,SG
205,40 Penjuru Lane 04-01 609216,1.31019952632448,103.729360089178,SG
206,Block 698 Hougang Street 61 01-04 530698,1.37486694556083,103.886990867804,SG
207,"418 Canberra Road, Singapore 08-357 750418",1.45237890079747,103.819399635393,SG
208,"1 Gul Circle, 03M-08, Jtc Logistics Hub @ GUL,Singapore,62  Jurong,1 Circle 629637",1.314390581695492,103.67743827164465,SG
209,Singapore 670605 19-41,1.38079825387267,103.761856783531,SG
210,"196 Pandan Loop, 06-24,Singapore,12  Pasir Panjang Hong Leong Garden Clementi New Town,196 Loop 128384",1.310543304,103.7510726,SG
211,"135 Jurong Gateway Rd, Singapore 01-333 Lenting Bee 600135",1.333944,103.7402296,SG
212,"Block 997C, Buangkok Crescent 16-841 Singapore 534997,Singapore,997C 534997",1.38553018206229,103.881587879925,SG
213,"Eurokars Habitat 27 Leng Kee Road, 01-01, Singapore, Singapore 159098",1.29049525982729,103.811496866476,SG
214,Block 856 Tampines Street 82 07-265 520856,1.35344325697952,103.936557630596,SG
215,"28 Race Course LANE, 01-07, Singapore 218746,Singapore,28 Lane 218746",1.30997911651659,103.852952941164,SG
216,"171 Bishan Street 13, Singapore 09-15 570171",1.3467917536458,103.853718946348,SG
217,"505b Yishun Street 51, Singapore 09-34 760505",1.288147,103.740233,SG
218,"Pico Art Centre. 20 Kallang Avenue. 339411,Singapore,20 Avenue 339411",1.30979212872289,103.865023825006,SG
219,"91 Jln Lekar, Singapore 698917, 698917",1.38580746491832,103.72433652591,SG
220,Block 318B Anchorvale Link 01-255 542318,1.393819156,103.8890872,SG
221,"01-07 North Bridge Rd, Singapore 267955",1.2909969,103.8504377,SG
222,"62 Havelock Road, River Place, Singapore 02-08 Tower B1 169659",1.2895063187129,103.840535689197,SG
223,"Singapore 270008 8, 9，275",1.31057118217437,103.787643205434,SG
224,"Innovative Store, Level 5, 05-71, Sim Lim Square, 1 Rochor Canal Road , Singapore 188504,Singapore,18  Middle Golden Mile,1 188504",1.30302298401639,103.853038663305,SG
225,Block 189A Rivervale Drive 05-1018 541189,1.395536656,103.9040179,SG
226,"Simei Rise, Savannah Condo Park Block 47, Singapore 02-33 528787",1.34853573658558,103.962844126126,SG
227,"Blk 35 Punggol Field  17-24,Singapore,82 Serangoon Garden Hougang Ponggol,35 828818",1.40117460155478,103.904932274703,SG
228,"110 International Road, Singapore 629174",1.32852970176794,103.680102207018,SG
229,"23 Hougang Ave 3, Singapore 530023 07-301",1.36485740081588,103.890728400852,SG
230,"476A Choa Chu Kang Ave 5, Singapore 681476 07-15",1.37656244062959,103.737926812136,SG
231,"133 New Bridge Road, Chinatown Point, B2-14/15/16,Singapore,133 Road 59413",1.28533894885996,103.845015574345,SG
232,"10 Ubi Crescent Techpark 05-34, 408564",1.326275241,103.8961307,SG
233,Apt Blk 251 Choa Chu Kang Avenue 2 10-300 680251,1.37823590230972,103.744537668054,SG
234,"Blk 1 Toh Yi Drive 13-133 Singapore, S(591501) 591501",1.3395815610282,103.774678246247,SG
235,Woodlands Street 31 Blk 313  04-66 730313,1.4308091705523,103.776169622031,SG
236,"Kapo Factory BUILDING, 80 Playfair ROAD, 01-20, Singapore, Singapore 367998",1.3370100385898,103.886436126327,SG
237,"118 Marsiling Rise, Singapore 03-146 730118",1.43846892760387,103.780395901657,SG
238,"816b Keat Hong Link, Singapore 11-75 682816",1.37605562666932,103.748339811156,SG
239,"21 Newton Road, Singapore 12-03 307954",1.314916233285499,103.84045070256497,SG
240,Singapore 538804 10-01 219490,1.31287338848807,103.849248089383,SG
241,"9 Ubi Link Kawah Building, 04-14 Singapore 408549",1.3330738212179,103.892747861578,SG
242,"1 Rochor Canal Road, Sim Lim Square, 06-02A 188504",1.30302298401639,103.853038663305,SG
243,1 Tampines North Drive 04-28 T-Space 528559,1.3719,103.9339,SG
244,"Blk 7, Gambas Crescent 09-30 Ark@Gambas.,Singapore,7 757087",1.44471782263041,103.812837877895,SG
245,"2 Science Park Drive, Ascent Tower A, 07-01/12 Singapore 118222",1.29080391348341,103.784486591212,SG
246,"443c Bukit Batok West Avenue 8, Singapore 03-791 653443",1.3556,103.7378,SG
247,"60 Jalan Lam Huat, Singapore 05-09 Carros Centre 729938",1.4064930024183,103.757724793927,SG
248,"38C Jalan Pemimpin 01-01,Singapore,57  Bishan Ang Mo Kio,38C 577180",1.34773573600058,103.842064471687,SG
249,"613D Punggol Drive, Singapore 824613",1.403713711664,103.908910478568,SG
250,"5000C Marine Parade Road, Singapore Laguna Park 06-11 449286",1.30850645174684,103.930442040021,SG
251,"15 Pandan Crescent, Level M3, Loading Bay Area 7 & 8, Level 4,Singapore,12  Pasir Panjang Hong Leong Garden Clementi New Town,15 Crescent 128470",1.30430002357292,103.757384222803,SG
252,"474 Sembawang Drive 10-335,Singapore,75  Yishun Sembawang,474 750474",1.45071296573792,103.816546210688,SG
253,"325 Bukit Batok Street 33, Block 325, Singapore 650325 10-07 ",1.36260340432006,103.747422606684,SG
254,"611 Woodlands Ring Road, Singapore 05-205 730611",1.4355671,103.7969415,SG
255,"17 Lentor Green, Singapore 789266",1.38634757577716,103.837545691276,SG
256,"216 Bukit Batok Street 21, Singapore 650216",1.34709817102871,103.753636227883,SG
257,"250 Yishun Ave 9, Singapore 760250 05-209",1.43553108858236,103.841674303609,SG
258,"32 Segar Road 12-14 Lobby D,  Blossom Residences 677722",1.38961113137568,103.769457303246,SG
259,"14 New Industrial Road 07-02A Hudson Building,Singapore,40  Geylang Eunos,65 Ubi Avenue 1 408939",1.32446885018273,103.893564386978,SG
260,"Oxley Bizhub 2 62 Ubi Rd 1, 03-18, 408734",1.332258978,103.8922812,SG
261,"01-07 North Bridge Rd, Singapore 640730",1.34610886407525,103.698426986057,SG
262,"16 Fernvale Street, Parc Botannia, Singapore 20-21 797393",1.3985208,103.8746952,SG
263,"615A Edgefield Plains, Singapore 12-331 821615",1.4038573772527,103.909539586113,SG
264,"4008 Ang Mo Kio Avenue 1, 02-18 Techplace 1,Singapore,56  Bishan Kio,4008 10 569625",1.3598822958827,103.856387793071,SG
265,"Audio House HUB
23 Ubi Road 4, 05 408620",1.33085217197564,103.89999904614,SG
266,"No.18 Boon Lay Way , 07-146(B), Singapore, Singapore 609966",1.32824702794425,103.753599992664,SG
267,Bedok North Road 03-653 Blk 427 460427,1.32911379967738,103.927733217201,SG
268,"1 Fusion Polis place, 09-11 Galaxy 737853",1.43475841107225,103.802721055594,SG
269,"Block 642, Jurong West Street, 13-54, 640642, Singapore 640642 04-54",1.3403743187882,103.695848043125,SG
270,8 Alexandra View The Metropolitan Condominium 18-08 158747,1.29047734228503,103.81601645094,SG
271,"512 Chai Chee Lane 03-01 Bedok Ind Estate SINGAPORE,Singapore,46  Upper East Coast Eastwood Kew Drive,469028 469028",1.32993829903613,103.917619194102,SG
272,"Woodlands Employment Development Centre 
30, Ring Road, 01-02,
Singapore 737883
, Singapore, Singapore 737883",1.43708420985259,103.797859129407,SG
273,Blk 642 Jurong West Street 61 07-52 640642,1.3403743187882,103.695848043125,SG
274,"Block 23, Hougang Avenue 3, 05-279 Singapore 530023",1.364857401,103.8907284,SG
275,"28 Sin Ming LANE, 02-138 Midview City 573972",1.35999020946691,103.834175097149,SG
276,"Choa Chu Kang North 7, Singapore 10-17 689528",1.39891738721374,103.749086605975,SG
277,"178 Paya Lebar Road, 02-02, Singapore, Singapore 409030",1.32982631377352,103.89023998003,SG
278,"52 Genting Lane, 05-01, Ruby Land Complex, Block 1,Singapore,34  Macpherson Braddell,349560 349560",1.32721134400481,103.874563241449,SG
279,"28D Dover Cres, Singapore 134028 34-81",1.30617173625983,103.782474243145,SG
280,"520 Miltonia Close, Singapore 04-03 768104",1.4179288,103.8484153,SG
281,"7 Bulim Street, Level 1, Warehouse 1A,Singapore,7 Street 648175",1.3551,103.7072,SG
282,Singapore 560157 02-546,1.37526934636886,103.839386037885,SG
283,"Bukit Batok, Singapore 600313",1.34714852004125,103.733342811317,SG
284,Aurogontest Logistics Test Sender address:gaiai 650000,1.288147,103.740233,SG
285,"154 West Coast Rd.  B1-32 Plaza, B1-32, Singapore, Singapore 127371",1.30381811398172,103.766266410522,SG
286,"48 Toh Guan Road East, Singapore 07-98 608586",1.336807,103.754305,SG
287,"412A Fernvale Link, Singapore 791412 08-21",1.38916245281706,103.878009817047,SG
288,Singapore 148957 25-16,1.29255482644626,103.806665258416,SG
289,31 Woodlands Close Horizon 04-30 737855,1.43686158492125,103.805998504039,SG
290,"511 Yishun Industrial Park A, 02-01,Singapore,76  Sembawang,511 A 768768",1.44179796864599,103.837285580657,SG
291,27 Greenwich Drive 533912,1.372,103.9095,SG
292,"10 Anson Road,International Plaza,Singapore 09-09 79903",1.2757126347773,103.845909290633,SG
293,Block 511B Yishun Street 51 11-439 762511,1.4163689,103.8433093,SG
294,"727 Clementi West Street 2, 01-260/262 120727",1.304345432,103.7633937,SG
295,"Telok Blangah Street 31, Singapore 93A, 16-151 101093",1.2753,103.8073,SG
296,"46A Tanjong Penjuru, Singapore 609040",1.30188423754945,103.736175192948,SG
297,"Block 260 05-312, 260, Tampines Street 21 520260",1.354645237,103.9501022,SG
298,"35 Chiltern Drive, Singapore 359751",1.3492114,103.8641769,SG
299,5A Toh Guan Road East Cwt Jurong Logistics Centre 02-01 608830,1.3394023956335,103.751129057597,SG
300,"786 Yishun Ring Road, Singapore 02-3502 760786",1.42137880433963,103.832056176456,SG
301,"760 Pasir Ris Street 71, Singapore 12-200 510760",1.37640979037932,103.933541675295,SG
302,"139 Tyrwhitt Road, Singapore 06-07 (Access Code 852369) 207557",1.31158206956957,103.859944387698,SG
303,"318a Yishun Avenue 9, Singapore 12-122 761318",1.4347716,103.8427973,SG
304,"Block 617, Jurong West Street 65 08-476, SG, 640617, Singapore, Singapore 640617",1.34070715464059,103.700469721628,SG
305,Block 820 Woodlands Street 82 11-397 730820,1.44119428529153,103.790146354772,SG
306,Singapore 530450 B1-541 530401,1.37484071498639,103.896993804867,SG
307,"241 Bishan Street 22, Block 241, Singapore 570241 10-234",1.36084159002247,103.845466006264,SG
308,"210 Hougang Street 21, Singapore 01-241 530210",1.35940177320263,103.886935405527,SG
309,550 Havelock Road 07-04 Singapore 169638,1.28983034166233,103.831843416857,SG
310,"546 Serangoon North Avenue 3, Singapore 06-218 550546",1.374549221361,103.870230294429,SG
311,"3 Temasek Boulevard, Singapore 02-439 Suntec City Tower 5 38983",1.2957711820314,103.858463013292,SG
312,"235 Ang Mo Kio Avenue 3, Singapore 03-1124 560235",1.36682676961642,103.836492064813,SG
313,"Changi Airport, Singapore 819643",1.35550455128567,103.98914095187,SG
314,Block 484 Jurong West Avenue 1 03-99 640484,1.348213497,103.7263507,SG
315,"525 Jelapang Rd, Block 525, Singapore 670525 09-111",1.38658478252981,103.765417140349,SG
316,"62 Ubi Road 1 Oxley Bizhub 2, 05-23, Singapore, Singapore 408734",1.33225897785585,103.89228119852,SG
317,"Block 2, Lorong 7 Toa PAYOH, 03-23 310002",1.33880975281265,103.853702725931,SG
318,"786f Woodlands Drive 60, Singapore 736786",1.44625314939218,103.800417937276,SG
319,5 Jalan Saudara Ku 457442,1.31084786897054,103.920437593171,SG
320,"7 Yishun Industrial Street 1 ,01-43 , Northspring beizhub768162 768162",1.43847273849828,103.843315726705,SG
321,Singapore 38989 34-03,1.29559412402555,103.858968227441,SG
322,Singapore 530408,1.37332363040952,103.895387994748,SG
323,"30 Mandai ESTATE, Industrial Building, 04-01 729918",1.40603712072117,103.758383273329,SG
324,"183 Jalan Pelikat 01-56 The Prmenade @ Pelikat,Singapore,53  Serangoon Garden Hougang Ponggol,183 537643",1.35530875578905,103.887855701623,SG
325,"Block 202, Serangoon CENTRAL, 02-44, Singapore, Singapore 550202",1.35140935749838,103.873602329548,SG
326,"1 Tampines North Drive 04-24 T-Space Singapore 528559,Singapore,52  Pasir Ris,1 528559",1.3719,103.9339,SG
327,"Choa Chu Kang Avenue 5, Singapore Blk 487C , 12-109 683487",1.37642219652521,103.739283979803,SG
328,"Singapore 140149 Blk149 Mei Ling Street, 12-71,",1.422434254028,103.84834516083,SG
329,"985 Bukit Timah Road, Singapore 04-14 589627",1.33448197892201,103.785572576263,SG
330,"1 Yishun Industrial Street 1, 03-26 Aposh Bizhub 768160",1.43731675325666,103.842091478836,SG
331,"2 Leonie Hill Road, Singapore 19-02 239192",1.2974125,103.833524,SG
332,"612, Jurong West Street 65, Singapore 08-506 640612",1.3386245,103.7010916,SG
333,"3 Ang Mo Kio Street 62 07-07 LINK@AMK Singapore 569139,Singapore,3 569139",1.38645291189388,103.844788849524,SG
334,"21 St George's Rd, Block 21, Singapore 321021",1.32478774301774,103.862195165127,SG
335,"315b Yishun Ave 9, Singapore 06-192 762315",1.43193085633953,103.842565043458,SG
336,"Outram Road, Sgh Block 5, Singapore 169608",1.28197500903152,103.836779950718,SG
337,"371 Beach Road, Singapore City Gate Residences 07-05 199597",1.30233873871399,103.862359327054,SG
338,"Watercolours 02-17 27, Pasir Ris Link 518151",1.37578535431791,103.959491562065,SG
339,"61 Ubi Road 02-43 Oxyley bizhub,Singapore,82  Serangoon Garden Hougang Ponggol,199B Punggol Field 822199",1.39996255844576,103.905751181278,SG
340,"273 Bangkit Rd, Singapore 670273 08-158",1.37757409297499,103.775352287557,SG
341,"707 Tampines Street 71, Singapore 08-84 520707",1.3576482823528,103.936892376529,SG
342,"43 Lentor Walk, Singapore 788808",1.38834599619367,103.838060701812,SG
343,"Bukit Merah View, Block 129, Singapore 150129, 18-156 150129",1.28355811481282,103.823983445857,SG
344,"261B Sengkang East Way, 14-400 Singapore 542261",1.39349897280013,103.894304729627,SG
345,"118 Telok Ayer Street, Singapore 01-01 68587",1.28201035421922,103.848149465354,SG
346,"96A Henderson Rd, Block 96, Singapore 151096 36-54",1.28791753106759,103.821868292034,SG
347,Blk 547 Serangoon North Ave 3 550547,1.37375209119618,103.870645904826,SG
348,"205 Hougang Street 21, Singapore 530205",1.359336,103.885208,SG
349,168 Tyrwhitt Road 207572,1.31189553549361,103.860732354806,SG
350,722 Tampines Street 72 06-15 520722,1.36006547519458,103.935734669124,SG
351,"1 Taman Warna, Singapore 1, 05-04 276337",1.3112281883637,103.799522423537,SG
352,"33 Kallang place, 33 Singapore 339161",1.31476215579812,103.868306486089,SG
353,"7 Gul Circle Level 5,Singapore,62  Jurong,629563 629563",1.30998905835699,103.675269242566,SG
354,"73 Ubi Road 108-50, Oxley Bizhub,Singapore,40  Geylang Eunos,73 1 408733",1.33279098417705,103.890308999619,SG
355,"64b Pagoda Street, Singapore 2nd Unit  59223",1.2837716544305,103.844039984477,SG
356,Singapore 751106 106A Canberra Street 09-413,1.4485,103.8331,SG
357,"705 Sims Dr, Singapore 387384, 02-13 Shun Li Industrial Complex 387384",1.31804661144138,103.876292257626,SG
358,"521 Bukit Batok Street 23, Excel Building 05-A, Singapore 659544,Singapore,65  Hillview Dairy Farm Panjang Choa Chu Kang,521 23 659544",1.34136248208172,103.756081902422,SG
359, 15 ST. Thomas Walk 238143,1.29785631093208,103.835054351988,SG
360,"38 Ang Mo Kio, 03-03 Lobby A Singapore 569511",1.37659951541292,103.865951787173,SG
361,"348741, 3 Lorong Bakar BATU, 03-03,Singapore,34  Macpherson Braddell,3 Batu 348741",1.32832431290731,103.872334372858,SG
362,"491A River Valley Road, Singapore 15-01 248372",1.29307225266937,103.827075933199,SG
363,"Tampines Avenue 8, Blk 880A 04-304 521880",1.3520153302216,103.931998564026,SG
364,"51 Corporation Road, Singapore 01-01 649806",1.34152623318601,103.715031557074,SG
365,"Dap Asia Pacific (S) Pte Ltd,Singapore,61  Jurong,619115 619115",1.31197625219188,103.720151696039,SG
366,"No1, Rochor Canal Road, 05-25B, Sim Lim Square,Singapore,18  Middle Road Golden Mile,1 188504",1.303022984,103.8530387,SG
367,117 Saraca Road 807412,1.38552255,103.8599722,SG
368,"11 Syed Alwi Road, Teck Heng Long Industrial Building, 02-02, Singapore, Singapore 207629",1.306798964,103.858184,SG
369,Singapore 556121 07-04,1.35084549308675,103.863321281276,SG
370,Blk 530 Hougang Street 51 05-536  530559,1.38002627937825,103.88949706409,SG
371,No. 4 Tampines Central 5 03-17A Mall 529510,1.352577016,103.9446962,SG
372,"33 Pasir Ris Street 72, Singapore 12-28 518770",1.3805056194507,103.935639085217,SG
373,"Singapore,1093 Lower Delta ROAD,BLK 1093 Road 02-18
SINGAPORE 169204",1.28179837722282,103.822626357932,SG
374,"658b Jurong West Street 65, Singapore 15-606 642658",1.3365063053435,103.700757384015,SG
375,2 Gambas Crescent 06-04 757044,1.443093656,103.8158937,SG
376,"10 Buroh Street, Singapore 01-01 627564",1.311765,103.701865,SG
377,"63 Hillview Avenue, Lam Soon Building, 01-01, Singapore, Singapore 669569",1.3570695902287,103.763584067042,SG
378,"Simei Street 1, Singapore 06-168 520134",1.34813827484081,103.955649538764,SG
379,"4A Bedok Walk, Singapore 469148",1.32999377719543,103.947874524349,SG
380,Singapore 824672 17-585,1.40759031203826,103.910923572928,SG
381,12 Tai Seng 02-01 534118,1.33773332436838,103.888163356629,SG
382,"454 Fajar Road, Singapore 15-592 670415",1.38335912313108,103.768931856639,SG
383,Singapore 460069 Block 69 Bedok South Avenue 3 03-498,1.31936441974796,103.943632514649,SG
384,"3 Changi Business Park Vista, Singapore 05-01 486051",1.33689592370927,103.967263862036,SG
385,"Toa Payoh Lorong 4 Blk 58 02-49,Singapore,31  Balestier Serangoon,58 310058",1.336747184,103.8505187,SG
386,"27 Greenwich Drive,  Level 3 Warehouse,,Singapore,53 Serangoon Garden Hougang Ponggol,533912 533912",1.372,103.9095,SG
387,61 Andrews Terrace 757415,1.45950908925526,103.838430327047,SG
388,"122 Simei Street 1, Singapore 520122 04-436",1.34556299430465,103.952492220392,SG
389,"202 Kallang Bahru, WPS350 (unit),Singapore,33  Balestier Toa Payoh Serangoon,202 Bahru 339339",1.31573710555268,103.865533712232,SG
390,"166 Lentor Loop, Singapore 04-01 789097",1.39130491074527,103.835932660128,SG
391,"22 Sin Ming Lane 07-88 Mid View City Singapore,Singapore,57  Bishan Ang Mo Kio,22 573969",1.358591852,103.8335723,SG
392,"38 Ang Mo Kio Industrial Park 2,Singapore,56  Bishan Kio,38 2 569511",1.37659951541292,103.865951787173,SG
393,Blk 576 Pasir Ris Street 53 02-78 510576,1.37289858582552,103.946804232441,SG
394,"1 Supreme Ct Ln, Singapura 178879",1.2902981,103.8508882,SG
395,"318a Yishun Ave 9, Singapore 761318, 06-124 761318",1.43407449625259,103.84357364927,SG
396,"Blk 939, Jurong West Street 91 02-415 640939",1.34297888748401,103.688793935673,SG
397,"124 Bedok North Rd, 12-131, Singapore 460124",1.3292155,103.9387525,SG
398,"50 Bukit Batok East Ave 3, Singapore 659879 15-127",1.34327960350945,103.758442140428,SG
399,"629 Jurong West St 65 06-404,Singapore,64  Jurong,629 Street 640629",1.34251953452532,103.699668070724,SG
400,"Singapore,514 Chai Chee LANE,514 Lane 05-14 469029",1.33071656185915,103.918193912937,SG
401,"65 Sungei Tengah ROAD,Singapore,69  Lim Chu Kang Tengah,65 Road 699000",1.3846295252817,103.726443874852,SG
402,"19 Kallang Avenue, Singapore 05-155 339410",1.31140126759657,103.865286994269,SG
403,"Blk 661C, Jurong West Street 64, 08-432 64 643661",1.336077,103.7050502,SG
404,430 Upper Changi Road 01-65 East Village 487048,1.33174682656824,103.946276683127,SG
405,"West Rock @ Bukit BATOK, 461D, Batok Avenue 8, 07-752 , Singapore, Singapore 654461",1.354453211,103.7403571,SG
406,Singapore 120704 02-445,1.30634274646254,103.76053618716,SG
407,"1047 Eunos Avenue 5B  Industrial ESTATE, 01-14, Singapore, Singapore 409668",1.32147382235129,103.896668272374,SG
408,50 Tagore Lane Entrepreneur Centre 05-04 787494,1.38347431446397,103.828405267799,SG
409,"106 Teck Whye Lane 12-506,Singapore,68  Hillview Dairy Farm Bukit Panjang Choa Chu Kang,106 680106",1.37796109859446,103.752930663577,SG
410,Block 323 Serangoon Avenue 3 11-234 550323,1.35098274305332,103.869280906603,SG
411,"10 Hospital Boulevard, Singapore Singhealth tower, 01,04 168582",1.2777982,103.8331886,SG
412,"149 Mei Ling Street 07-83,Singapore,14  Queenstown Tiong Bahru,149 140149",1.294799806,103.8046102,SG
413,"Block 558, Pasir Ris Street 51, 08-309 , Singapore, Singapore 510558",1.3668005,103.9517123,SG
414,"1 Tampines North Drive 3, 05-01, Bhcc Spaces 528499",1.372899,103.9327967,SG
415,"303 Choa Chu Kang Avenue 4, 01-723, Singapore, Singapore 680303",1.38454839473864,103.743795765373,SG
416,"62A Smith Street, Level 2,Singapore,62 Street 58964",1.28296668590072,103.84328803516,SG
417,7 Changi Business Park Vista 01-01 486042,1.33824039424587,103.965227334327,SG
418,"49 Pandan ROAD, 05-02,Singapore,60  Jurong,49 Road 609290",1.30252932321985,103.746347602242,SG
419,Singapore 271030 03-203,1.30746713394194,103.797185887433,SG
420,"232 Ang Mo Kio Ave 3, Singapore 11-1216 560232",1.36834351864144,103.837200334794,SG
421,"50 Jurong Gateway ROAD, 04-39 , Singapore, Singapore 608549",1.33255233,103.7432622,SG
422,48 Woodlands Drive 16 Forestville 13-52 737763,1.43194790150478,103.798705761205,SG
423,"Lorong J Telok Kurau, Singapore 596229",1.3582606050813,103.766168368177,SG
424,"Singapore,Singapore,53  Serangoon Garden Hougang Ponggol,231 Upper Paya Lebar Road 533870",1.341747657,103.883332,SG
425,"7A Jln Yasin, Singapore 417982 417980",1.32072222377042,103.90668960696,SG
426,1 Kaki Bukit Avenue 3 KB-1 05-02 416087,1.33676940554345,103.904939709239,SG
427,"319 Sembawang Close, Singapore 14-24 750319",1.44623478264111,103.819253899422,SG
428,"70 Choa Chu Kang Ave 5, Singapore 02-20 688196",1.374393947,103.739561,SG
429,"6 Ah Hood Road, Singapore 13-01 The Belleforte  329974",1.32724245330319,103.845133451582,SG
430,"22 Jalan Lempeng  07-09,Singapore,12 Pasir Panjang Hong Leong Garden Clementi New Town,22 128803",1.31725956065793,103.761545058817,SG
431,"Boon Lay Mrt Station, Way, Singapore 649846",1.33849328489296,103.70584540476,SG
432,"93 Yishun Street 81, Singapore 768450, 06-08 768451",1.4123144,103.8351405,SG
433,"738 Woodlands Circle, Singapore 02-369 730738",1.44404661783803,103.79748973545,SG
434,"323 Woodlands Street 32, Singapore 09-157 730323",1.43117138478494,103.779111218431,SG
435,Singapore 510191 11-171,1.36606722262342,103.958731025841,SG
436,"05-01, 49 Pandan Road, Singapore 609290",1.30252932321985,103.746347602242,SG
437,197A Boon Lay Drive 05-89 641197,1.344106102,103.7137192,SG
438,"298 Jln Besar, Allenby House, 03-01,Singapore,20  Little India,298 Jalan Besar 208959",1.31080827803425,103.859170132412,SG
439,"blk931,Yishun Central 1,  Singapore 02-105 760928",1.426919,103.838399,SG
440,"535A Clementi Rd, Singapore 599490 Annex Level 1 310152",1.33403937414166,103.845886533206,SG
441,"6001 Golden Mile Tower Beach Road, 02-32 , Singapore, Singapore 199589",1.30189409284441,103.864143941276,SG
442,Block 196A Punggol Field 02-519 821196,1.39919652451805,103.906740821302,SG
443,"129 Marsiling Rise, Singapore 06-306 730129",1.43780694770893,103.778701315977,SG
444,430 Upper Changi Road East Village 487048,1.33174682656824,103.946276683127,SG
445,"60 Kaki Bukit place, 04-12,Singapore,41  Geylang Eunos,60 Place 415979",1.33411600061092,103.904493501828,SG
446,Singapore 161002 10-38,1.29173786270176,103.828028122424,SG
447,"05-01, 49 Pandan Road, Singapore 609290",1.30252932321985,103.746347602242,SG
448,"Yishun Ring Road, Block 807, Singapore Level 2, Unit No 01-4211 760807",1.41649872886073,103.831578490628,SG
449,"Blk 107c Edgefield plains, 04-128, Singapore, Singapore 823107",1.39661566416247,103.907600732233,SG
450,"11 Chai Chee Rd, Singapore 460011 08-25",1.32688069429068,103.924907042684,SG
451,"Holland Road, The Serenade @ Holland, Singapore 10-05 278698",1.31846463886699,103.779858524322,SG
452,"6 Tagore Drive, 02-03 Building 787623",1.38622503360935,103.826783145527,SG
453,"Punggol Central, Singapore 824601",1.40295932776307,103.90774088508,SG
454,Blk 846 Woodlands Ave 4 07-624 730846,1.44330260306729,103.793474574602,SG
455,"Tat Ann BUILDING, 40 Jalan PEMIMPIN, Singapore, Singapore 577185",1.34866069486678,103.842246634274,SG
456,"1 Sims Lane, 01-03, Singapore, Singapore 387355",1.31679577873064,103.880845808145,SG
457,"Woodlands Street 82, Block 849, Singapore 12-209 730849",1.44132033687377,103.792063394125,SG
458,"01-07 North Bridge Rd, Singapore 123456",1.2909969,103.8504377,SG
459,"52 Genting LANE, 05-01, Ruby Land COMPLEX, Block 1, SINGAPORE,Singapore,34  Macpherson Braddell,52 Lane 349560",1.32685191573624,103.8743170936,SG
460,"50 Airport Boulevard, Singapore 819658",1.34754452769596,103.986094994116,SG
461,"Yishun Street 81, Singapore 02-116 760848",1.41624544714369,103.835250182269,SG
462,Blk 446 Hougang Ave 8 12-1631 530446,1.37879301120826,103.894281704049,SG
463,3 Chin Bee Crescent Level 6 619891,1.336425,103.711575,SG
464,47JalanBuroh0901SingaporeSingaporeSingaPore 619491,1.31719029759699,103.716639064348,SG
465,"Serangoon,Singapore,53  Serangoon Garden Hougang Ponggol,6 Jalan Labu Manis 537991",1.345150489,103.8731405,SG
466,"37 Greenwich Drive, Singpost Regional Ecommerce Logistics Hub Level 3, 03-01 533864",1.3692,103.9097,SG
467,550 Serangoon North Avenue 3 04-31 550550,1.37251534421514,103.870483983792,SG
468,65A Jalan Tenteram 04-13 328958,1.328702749,103.8584489,SG
469,18 Pioneer Crescent Level 4 628567,1.3125,103.6944,SG
470,"Block 27 Bendemeer Road Shopping MALL, 01-667 330027",1.31883815388131,103.862815823073,SG
471,Block 19 Teck Whye Lane 680019,1.37939726897231,103.752951905289,SG
472,Singapore 670232 05-25,1.37645,103.772378,SG
473,"296 Tampines Street 22, Singapore 06-542 520296",1.3509868558543,103.95547822209,SG
474,"163 Geylang Road 03-03, The GRANDPLUS,Singapore,38  Eunos,163 389240",1.31162588227045,103.874546196377,SG
475,Blk 612A Punggol Drive 11-807 821612,1.40412996156738,103.909202005579,SG
476,Blk 635 Choa Chu Kang North 6 680635,1.39733121980413,103.749601472328,SG
477,"252 North Bridge Road, 01-42, Raffles City Shopping Centre, 179103",1.2940764448015,103.853331827201,SG
478,05-07A Ych Supply Chain City Office Building 8 Bulim Ave 648166,1.3529,103.7093,SG
479,"72 Circuit Road 05-19,  370072",1.3245524250595,103.887945675776,SG
480,"601 Jurong West Street 62, Block 601, Singapore 640601 04-173",1.33981083327529,103.700221648728,SG
481,"Blk 345, Yishun Ave 11 09-177 760345",1.42848131769022,103.844073001158,SG
482,Blk 508B Yishun Ave 4 12-54 762508,1.4143,103.8398,SG
483,"1 Kim Chuan terrace,Singapore,1 Terrace 537024",1.3391172717354,103.890720655536,SG
484,"7 Sixth Lok Yang Rd, Singapore 628105",1.3255212148633,103.683398517893,SG
485,"Blk 16 Kallang Place, Basin Industrial Estate, 05-30 339156",1.330065181885308,103.87821599814755,SG
486,55 Serangoon North Avenue 4 01-18 S9 555859,1.376960691,103.8748748,SG
487,1002 Jalan Bukit Merah 04-05 159456,1.28418036707747,103.812594547167,SG
488,"521 Woodlands Drive 14, Singapore 730521 03-347",1.43383922846794,103.793129998418,SG
489,93 Mcnair Road 328560,1.31970495645225,103.858039267791,SG
490,"44 Marine Crescent, Singapore 02-12 440044",1.30473083188428,103.913085021969,SG
491,39 Eng Kong Crescent Green 02-01 599429,1.3357843748853,103.769858422808,SG
492,"Hougang Ave 10, Singapore Block 420, 05-331 530420",1.37580558554032,103.894819072202,SG
493,"18b Canberra Drive, Singapore 02-46 752106",1.448,103.8332,SG
494,"25 Nanyang Avenue, Singapore 09-12 637121",1.35554499337404,103.68574562709,SG
495,"21 Pandan Avenue, Singapore 04-08 609388",1.30089813935197,103.748427070289,SG
496,"Geylang Serai, Serai Malay Market And Food Centre, Singapore 01-06 400015",1.32386011056043,103.903363614164,SG
497,"3 New Bugis St, Singapore 188865 Street MSV28 ",1.30053391155387,103.854830942329,SG
498,"North Bridge Road, Bugis Cube, Singapore 03-20 188735",1.29819500461162,103.855655544525,SG
499,"112 East Coast Road, 01-29 428802",1.3052230621651,103.905043928892,SG
500,"508 Bedok North Avenue 3, Singapore 02-379 460508",1.33339267784019,103.932518577108,SG
501,Block 467A Fernvale Link 15-511 791467,1.39794331020569,103.87856836771,SG
502,Singapore 560105,1.37230098079648,103.837592474952,SG
503,"5A Toh Guan Road East, 03-03,Singapore,60  Jurong,5A East 608830",1.3394023956335,103.751129057597,SG
504,"619H Bukit Timah Road, NA, Singapore, Singapore 269728",1.32458252767656,103.80911877507,SG
505,"Singapore 678265 20-09, Block 2B, Maysprings, 2 Petir Road,",1.37728764403835,103.763431985138,SG
506,Singapore 310241 07-191,1.33050536343863,103.855776360997,SG
507,"Singapore, 577185, 40 Jalan PEMIMPIN,Singapore,57  Bishan Ang Mo Kio,40 Pemimpin 577185",1.34866069486678,103.842246634274,SG
508,"50 Choa Chu Kang North 617-01,Singapore,68  Hillview Dairy Farm Bukit Panjang Kang,50 6 689574",1.39445329142082,103.751341514476,SG
509,127 Sunset Way 03-02 597156,1.32843772864633,103.765463349932,SG
510,"100 Robertson Quay 05-10, Lobby 2 238250",1.291112089,103.8378213,SG
511,"38 Ang Mo Kio Industrial Park 2, Singapore 06-WPS611 (Lobby A, Press 611 To Access Lift 569511",1.37659951541292,103.865951787173,SG
512,"48 Toh Guan Road East 06-124,Singapore,60  Jurong,48 608586",1.336807,103.754305,SG
513,"9 Sembawang Cres, Singapore 757057 Unit 11-20",1.4446959,103.8197576,SG
514,"145 Saraca Road, Singapore 805715",1.38542447990326,103.859170096763,SG
515,5 Changi South Lane 05-02 486045,1.33322582633931,103.952782457983,SG
516,"Block 110, Gangsa ROAD, 04-91 , Singapore, Singapore 670110",1.37787925652176,103.768139160074,SG
517,"1 Sembawang Crescent, 07-03, Singapore Block 1, 07-03 757093",1.4446956,103.819757,SG
518,"Oxley BIZHUB, 65UBI Rd 04-35 Singapore 408729",1.3324954869958,103.890184728797,SG
519,998A Buangkok Crescent Parkvista  09-701 531998,1.38375783,103.8801722,SG
520,"5 Science Park Dr, Singapore Blk 210, Bukit Batok St21, 03-206 650210",1.34549799123212,103.749958897782,SG
521,51B Mount Sinai Road Singapore 276883,1.31359591372603,103.785608767895,SG
522,"110 Gangsa Road, Singapore 04-89 670110",1.37787925652176,103.768139160074,SG
523,28 Sin Ming Lane  Midview City 02-131 573972,1.35999020946691,103.834175097149,SG
524,"Hougang Avenue 8, Singapore Blk 698B 04-31B 532698",1.37481305868107,103.887721641815,SG
525,Singapore 824306 16-907,1.40598636178301,103.906432863741,SG
526,Block 702 Choa Chu Kang Street 53 680702,1.39130393783981,103.745518396771,SG
527,Singapore 524518 12-42 The Premiere,1.35637276579205,103.939269024601,SG
528,"10 Anson Road, Singapore International Plaza 21-09A 79903",1.2757126347773,103.845909290633,SG
529,"114 Serangoon North Avenue 1, Singapore 03-559 550114",1.36884596596853,103.871490989464,SG
530,"95 Tampines Avenue 1, Waterview, 08-45 Singapore, Singapore 528692",1.3489234,103.9263194,SG
531,"1 Rochor Canal Road, 04-12, Sim Lim Square,Singapore,18  Middle Road Golden Mile,1 188504",1.303022984,103.8530387,SG
532,"No. 7 Bulim Street, 07-A,Singapore,64  Jurong,7 Street 648175",1.3551,103.7072,SG
533,"705 Sims Drive 04-10 Shun Li Industrial Complex,Singapore,705 387384",1.31804661144138,103.876292257626,SG
534,"Block 215B Compassvale DRIVE,  07-524 542215",1.39000944356411,103.8934541832,SG
535,"716 Ang Mo Kio Avenue 6, Singapore 10-4028 560716",1.37147908070325,103.845868854838,SG
536,"Hillview Avenue, Singapore 669623",1.3540254763652,103.760788668212,SG
537,"No 2 Leng Kee Road Thye Hong Centre, 05-10A Singapore 159086 Sg",1.0,1.0,SG
538,Blk 461D Bukit Batok West Avenue 8 07-756West Rock 654461,1.354453211,103.7403571,SG
539,"194 Pandan Loop Pantech Business HUB, 04-03 Singapore 128383",1.310323647,103.7519907,SG
540,"1 Tuas South Avenue 6, Singapore 670615",1.38495609146003,103.762313847094,SG
541,"Block 63 , Kallang Bahru 06-443 330063",1.32102070616573,103.868319129757,SG
542,31 Woodlands Close 07-11 737855,1.43686158492125,103.805998504039,SG
543,"475 Choa Chu Kang Avenue 3, Singapore 01-30A 680475",1.37789727606496,103.739015486131,SG
544,"19 Burn Road, Singapore 05-03 369974",1.33535640689727,103.884228704813,SG
545,"37 Greenwich Drive 02-01 Loading Bay 16 To 19,Singapore,53  Serangoon Garden Hougang Ponggol,37 533864",1.3692,103.9097,SG
546,"34 Upper Cross ST, 04-138 Singapore 50034",1.286074039,103.8423314,SG
547,"Bukit Batok Street 52, Singapore 04-69 650501",1.35149324341765,103.754996832288,SG
548,"Senang Crescent, Bizhub 28, Singapore 03-06 416601",1.3273518,103.9180479,SG
549,"336a Anchorvale Crescent, Singapore 12-18 543336",1.39757591614097,103.888488169525,SG
550,"152 Paya Lebar Road,Singapore,40  Geylang Eunos,152 Road 409020",1.32876067088196,103.890584694287,SG
551,1 International Business Park 609917,1.32904274522027,103.748690676195,SG
552,"Woodlands Drive 16, Singapore Blk 542 730542",1.42769337727363,103.793768421243,SG
553,"Ubi Avenue 3, TOOL-TEMP Asia Pte LTD, FRONTIER, Singapore 50, 03-04 408866",1.33199451100533,103.895394355269,SG
554,"61 Telok Blangah Heights, Block 61, Singapore 100061 6-113",1.2757812,103.8120747,SG
555,"270 Bangkit Road, Singapore 04-22 670270",1.37649702716513,103.774208839793,SG
556,"1014 Geylang Avenue 3, 06-212 Singapore 389729",1.318403546,103.8908864,SG
557,100 Pasir Panjang Road 03-10 118518,1.2754305,103.7957619,SG
558,"23 Tagore lane.  unit: 04-17. Aladdin lifesmart., 04-17, Singapore, Singapore 787601",1.38510206093997,103.828165890061,SG
559,"Tuas South Avenue 10, Abbott, Singapore 26 Gate 1, Security Guard 637437",1.2828996245173,103.62929466662,SG
560,"Ang Mo Kio Industrial Park 2 Block 5065, 01-1419,Singapore,56  Bishan Kio,5065 569568",1.37546941763972,103.859848822997,SG
561,"Getha Singapore, 61, Ubi Road 1, Oxley Bizhub 1,, 01-32,  Sg 408727,Singapore,40 Geylang Eunos,61 1 408727",1.33165602632244,103.890459062034,SG
562,"Blk 738, Yishun St 72, 07-147 738 Street 72 760738",1.42935751939698,103.832466798518,SG
563,"Win 5, 15 Yishun Industrial Street 1, 08-20 768091",1.43764051294192,103.844520852963,SG
564,"A'Posh Bizhub 07-03, 1 Yishun Industrial Street 1,Singapore,76  Sembawang,1 768160",1.437316753,103.8420915,SG
565,"Robin Village, 01-00 Singapore 258176",1.318929319,103.8287009,SG
566,"35A Lor Tanggam, Singapore 798736",1.39830828474678,103.873974403579,SG
567,"Easytopup Solutions Pte Ltd,  22 Belilios Lane , 01-04, Singapore, Singapore 219962",1.30736610594478,103.85186719684,SG
568,"219 Henderson Road 02-06 Industrial Park,Singapore,15  Queenstown Tiong Bahru,219 159556",1.28022655442407,103.819874479341,SG
569,"770 Bedok Reservoir View, Singapore 15-179 470770",1.3359,103.9385,SG
570,"9, Upper Bukit Timah View, 02-04 Singapore 588136",1.34636026,103.7710464,SG
571,"365 Yishun Ring Road, Singapore 07-1558 760365",1.42925244599043,103.845192352338,SG
572,"24 Lim Teck Boo Road Nanyang Centre, 03-04 537003",1.34448199578859,103.885411744004,SG
573,"Blk 3016, Bedok North Ave 4, 01-14,Singapore,48  Upper East Coast Eastwood Kew Drive,3016 Avenue 4 489947",1.337773627,103.948913,SG
574,"604C Punggol Road, Singapore 06-744 823604",1.40364084679425,103.907545420924,SG
575,"223 Ang Mo Kio Ave 1, Singapore 10-515 560223",1.36604260075118,103.8381208539,SG
576,189 Loyang Rise 507412,1.36459345227524,103.965938971071,SG
577,"7030 Ang Mo Kio Avenue 5, Northstar 08-106 569880",1.37746911679308,103.875557528428,SG
578,"45 Lentor TERRACE, 45 788940",1.38911287057658,103.836566999598,SG
579,"530 Jurong West Street 52, Singapore 08-403 640530",1.34853287196838,103.715468145644,SG
580,"19 Keppel Road, Singapore 02-06/10 89058",1.2729950508496,103.842433860552,SG
581,"Hougang Street 52, Block 699A, Singapore 531699 ",1.3769878155703,103.888864094064,SG
582,"3 Lorong Bakar Batu 04-02,  Singapore 348741,Singapore,3 348741",1.32832431290731,103.872334372858,SG
583,Aurogontest Logistics Test Sender address:gaiai 650000,1.288147,103.740233,SG
584,Block 548B Segar Road 10-672 672548,1.38936032530111,103.768670602119,SG
585,"16A Shelford ROAD,Singapore,28  Watten Estate Novena Thomson,16A Road 286654",1.32707009970914,103.81266443842,SG
586,5 Tampines North Drive 01-100 Reebonz Building 528548,1.3655,103.9337,SG
587,"Ang Mo Kio Avenue 2, The Panorama, Singapore 14 567695",1.3754964,103.8339033,SG
588,24 Sin Ming Lane 01-95 573970,1.35904834031362,103.833778947668,SG
589,"Paya Lebar Road, Az @ Lebar, Singapore 09-13 Lily Pirates  409015",1.3272866,103.8906648,SG
590,"606C Tampines St 61, Singapore 14-394 523606",1.361891722,103.9375069,SG
591,788E Woodlands Crescent 06-208 735788,1.44454411644479,103.802454529162,SG
592,Singapore 130021 02-336,1.30701882152235,103.784635057712,SG
593,"16B Margoliouth Road, Singapore 258542",1.32049058750065,103.824351358611,SG
594,"Block 20, Jalan KLINIK, 07-16 , Singapore, Singapore 160020",1.28810755141632,103.829051204932,SG
595,"39 Changi South Avenue 2,Singapore,48  Bedok Upper East Coast Eastwood Kew Drive,39 2 486352",1.33350779839287,103.970039041238,SG
596,"81 Compassvale Bow, Singapore 03-03 544823",1.38129610527232,103.892002327739,SG
597,"1 Jalan Kathi,Singapore,46  Bedok Upper East Coast Eastwood Kew Drive,1 Kathi 468646",1.32364995363249,103.953084104616,SG
598,"3 Simei Street 4, Singapore 06-08 529862",1.3411599313609,103.958372763801,SG
599,Block 107 Bukit Purmei Road 01-01K 90107,1.27308854210105,103.824700045191,SG
600,"Blk 897C, Woodlands Drive 50 10-188 732897",1.43574333996238,103.794127403254,SG
601,"31 Pheng Geck Avenue, Singapore 14-05 348226",1.33057728913061,103.869368428414,SG
602,"507 W Coast Dr, 新加坡 120507 09-245",1.31209226015334,103.760802724023,SG
603,"Singapore,Singapore,75  Yishun Sembawang,104C Canberra Street 753104",1.4497,103.8318,SG
604,"5008 Ang Mo Kio Ave 5, 05-16, Techplace Ii Singapore 569874",1.37753808189125,103.865403925536,SG
605,"20, Senoko Way, 01-01, Singapore, Singapore 758042",1.4682042174608,103.812657168561,SG
606,"11 Syed Alwi ROAD, Teck Heng Long Building 02-03,Singapore,20  Little India,207629 207629",1.30679896373647,103.858183965334,SG
607,"175 Lompang Rd, Block 175, Singapore 670175",1.37975306237516,103.765966443818,SG
608,"6 Canberra Dr, Singapore 768140, 12-08 768140",1.43812490907182,103.83077448203,SG
609,"435B Fernvale Road 19-218
Singapore 792435,Singapore,79  Seletar,435B 792435",1.393262788,103.8766488,SG
610,"Chua Chu Kang Avenue 3, Blk 404, 04-245 Singapore 680404",1.38013270004175,103.738893574106,SG
611,"Sembawang Close, Block 341b Hdb Sembawang, Singapore 08-39 752341",1.44810797824187,103.81838354493,SG
612,"183 Jalan Pelikat, Singapore 01-56 537643",1.35530875578905,103.887855701623,SG
613,"471b Fernvale Street, Singapore 24-113 792471",1.39647066322941,103.880576881699,SG
614,"11 Northshore DRIVE,Singapore,82  Serangoon Garden Hougang Ponggol,11 Drive 828670",1.415036,103.898982,SG
615,"Block 1023 Yishun Industrial Park A, 03-13, Singapore, Singapore 768762",1.443082463,103.8339272,SG
616,"391 Orchard Road Takashimaya Shopping Centre, Ngee Ann City 04-20D 238872",1.302308817,103.8347498,SG
617,10 Anson Road 26-04 International Plaza 310250,1.33200014589939,103.856650729188,SG
618,Block 143 Jalan Bukit Merah 01-K1 160143,1.2777851071956,103.830001459355,SG
619,"Jurong West Street 61, Block 653A, Singapore 06-436 641653",1.3368178139653,103.696662816928,SG
620,105A Bidadari Park Drive 14-40  341105,1.334006025,103.8704301,SG
621,"Yishun Avenue 4, Angsana Breeze @ Yishun, Singapore Blk 507A 04-112 761507",1.4153,103.8398,SG
622,"Block 674a, Yishun Avenue 4,  05-728 761674",1.4206,103.8431,SG
623,33 Ubi Avenue 3 Vertex (LOBBY B) 06-08 408868,1.33233,103.89411,SG
624,Block 213 Bukit Batok Street 21 01-215 650213,1.34682148685816,103.752503333888,SG
625,"Blk 121, Yuan Ching Road 05-427 610121",1.33569934699501,103.724050449052,SG
626,"10 Admiralty Street, Singapore 02-07 Northlink Building 757695",1.4624495,103.8103428,SG
627,"5 Magazine Road, Singapore 02-03 59571",1.28907404627718,103.842872855533,SG
628,"211 Holland avenue, Road Shopping center, 02-24,Singapore,27  Ardmore Bukit Timah Tanglin,211 Avenue 278967",1.310255419,103.7953504,SG
629,"Blk 5047 Ang Mo Kio Industrial Park 2, 01-607, Singapore, Singapore 569550",1.373136446,103.8606165,SG
630,"320a Anchorvale Drive, Singapore 11-42 541320",1.39033366140871,103.891009763853,SG
631,"19 Leng Kee RD, 5003, SINGAPORE,Singapore,15  Queenstown Tiong Bahru,19 Road 159093",1.29029331390676,103.812859372551,SG
632,"10 Gopeng Street, Singapore 15-19 78878",1.27516187927389,103.844538436956,SG
633,"434B Fernvale Road, Singapore 09-244 792434",1.39450165281123,103.876589888952,SG
634,"16 Ghim Moh Road, Singapore 03-61 270016",1.30941547941842,103.788085746915,SG
635,"Blk896A Woodland Drive 50,11-66 ，Singapore 730896 11-66",1.43646756659049,103.793072354344,SG
636,"669b Edgefield Plains, Singapore 04-656 822669",1.40453606924138,103.914012816113,SG
637,"122 Geylang East Central, Singapore 08-80 380122",1.31769070201058,103.884976359679,SG
638,"52 Genting Lane Ruby Land complex, 05-01 349560",1.327211344,103.8745632,SG
639,2 Yishun Industrial Street 1 07-27 North Point Bizhub 768159,1.43615219269193,103.8431016352,SG
640,800 Upper Bukit Timah Road 01-01 678139,1.37351491781971,103.764486134956,SG
641,"252 North Bridge Road, 01-42, Raffles City Shopping Centre, 179103",1.2940764448015,103.853331827201,SG
642,Singapore 350115 10-880 blk115,1.33728419592333,103.862805072051,SG
643,Blk 16 Kallang Place  06-02 339156,1.330065181885308,103.87821599814755,SG
644,"22 New Industrial road, 05-02, Singapore, Singapore 536208",1.34370185,103.886322,SG
645,"20 Woodlands Drive 16, Singapore 03-04 737879",1.43157027374075,103.798893154213,SG
646,"471 Ang Mo Kio Avenue 10, Singapore 03-784 560471",1.36345350716228,103.856693253829,SG
647,"252 North Bridge Road, 01-42, Raffles City Shopping Centre, 179103",1.2940764448015,103.853331827201,SG
648,"Nordcom TWO, 2 Gambas CRESCENT, 02-12 , Singapore, Singapore 757046",1.442525982,103.817216,SG
649,7030 Ang Mo Kio Avenue 5 Northstar @ Amk 08-93 569880,1.37746911679308,103.875557528428,SG
650,"Pasir Panjang Road, Arise Shine Marketing, Singapore 02-05 118530",1.27620213237993,103.79492649562,SG
651,Singapore 545119 07-20,1.37986143323505,103.897745019784,SG
652,8 Jalan Kilang Timor 02-01 159305,1.2847,103.81,SG
653,"15 Duxton Rd, Singapore 89481",1.27976853723726,103.843411312098,SG
654,"115 Eunos Ave 3, Singapore 02-01 409839",1.3194363,103.897453,SG
655,1 Rochor Canal Road  05-62 Sim Lim Square 188504,1.30302298401639,103.853038663305,SG
656,"9 Simei St 4, 07-06 SG, Sg 529865",1.34004174193368,103.957695174245,SG
657,"5 Yishun Close 768006, Singapore 14-10 768005",1.434768994,103.844173,SG
658,"200 Victoria Street  Bugis Junction, 03-24, Singapore, Singapore 188021",1.29906798174581,103.855327951802,SG
659,"6 New Industrial Road, 02-03, Singapore 536199,  536199",1.34143891727627,103.885326595891,SG
660,"671A Edgefield Plains, Singapore 11-507 821671",1.40601293677754,103.912142716678,SG
661,968 Dunearn Road Jardin 06-20 589489,1.33768439851993,103.780147954644,SG
662,6001 Beach Road Golden Mile Tower 01-35 199589,1.30189409284441,103.864143941276,SG
663,"1 Jalan Membina, 10-03,Singapore,1 Membina 169479",1.28519576145409,103.827677219323,SG
664,"702 Choa Chu Kang Street 53, Block 702, Singapore 680702 07-48",1.39130393783981,103.745518396771,SG
665,"Blk 727 Clementi West Street 2 01-260, 192 Pandan Loop, Pantech Business Hub,  05-15,Singapore,727 120727",1.30434543242836,103.763393660839,SG
666,1090 Lower Delta Road 6-06-08/16 169201,1.27982152530882,103.821271202031,SG
667,Singapore 384003 Block 3D,1.31328836157989,103.872842061545,SG
668,"Singapore,Singapore,56  Bishan Ang Mo Kio,7030 Kio Avenue 5 569880",1.37746911679308,103.875557528428,SG
669,"64 Choa Chu Kang Avenue 5, Singapore 09-12 688193",1.374863948,103.7399652,SG
670,"1 Fusionopolis Way, Singapore 06-10 Connexis North Tower 138632",1.29925289626035,103.78745168183,SG
671,"10 Lorong 27 Geylang ALCOVE, The / 02-09 388199",1.31400655229951,103.884015329112,SG
672,"2 Kim Chuan Drive, 05-08, Csi Dirstribution Center 537080",1.34106576293959,103.890105635239,SG
673,"37 Sea Breeze Road, Singapore 487468",1.33732054915386,103.951581885892,SG
674,"12M Lornie Rd, Singapore 298743 18",1.3374655,103.8200643,SG
675,"120 Geylang East Central, Singapore 04-60 380120",1.31820506838827,103.88475266339,SG
676,"587 Woodlands Drive 16, Singapore 10-48 730587",1.4286038,103.7941707,SG
677,"Blk 708 Tampines Street 71, 04-104 520708",1.35799200717127,103.936892456751,SG
678,"34 Whampoa West, 01-63,Singapore,33  Balestier Toa Payoh Serangoon,34 West 330034",1.32050545669243,103.863336051413,SG
679,Blk 675d Yishun Ave 4 07-834 07834 764675,1.4197,103.8427,SG
680,"1 Upper Bukit Timah View, Singapore 03-03 588132",1.346900318,103.771052,SG
681,"409a Fernvale Road, Singapore 17-42 791409",1.38906494238188,103.877151922792,SG
682,"7 Marine VISTA10-11,Singapore,44  Katong Joo Chiat Amber Road,7 Vista 449031",1.30760997449292,103.921526371709,SG
683,Blk 28 Kallang Place 01-01 339158,1.31524126123392,103.866848011782,SG
684,"Hougang Avenue 8, Singapore 10-391 530653",1.37282149318598,103.881244641352,SG
685,"270 Jalan Besar, Singapore Holiday Inn Express Serangoon, Room 214 528684",1.34812154977929,103.926075240688,SG
686,"5 Elias Green, Singapore Lobby 5a 602287",1.33846635291939,103.744326812113,SG
687,"8 Gul Avenue,Singapore,62  Jurong,8 Avenue 629652",1.31557877854322,103.675125277658,SG
688,"Wilby Road, The Tessarina, Singapore 9,6,20 276307",1.33251282025437,103.789866101629,SG
689,"802 Woodlands Street 81, Singapore 04-71 730802",1.44081206366777,103.786262585293,SG
690,"26 Senoko Way , Level 4,Singapore,75  Yishun Sembawang,26 758048",1.4686142820734,103.810797191827,SG
691,"34 Marine Crescent, Singapore 02-49 440034",1.30369841010187,103.912256775863,SG
692,"150 Ubi Ave 4 , 04-01,Singapore,40  Geylang Eunos,408825 408825",1.3344099847748,103.89621808054,SG
693,"15 Pandan Crescent S128470, Clementi, Singapore., Level 2 Zone D 128470",1.30430002357292,103.757384222803,SG
694,"5C Toh Guan Road EAST, Level 1 WAREHOUSE, 01-00,Singapore,60  Jurong,5C East 608828",1.338186623,103.7507347,SG
695,"Mountbatten Road, Katong Shopping Centre, Singapore 1-01 437844",1.3037981323282,103.901161717414,SG
696,"Singapore,Singapore,10  Telok Blangah Harbourfront,76 Drive 100076",1.2743799902,103.808742730619,SG
697,"05-41 Tower 40, Woodlands Drive 16, Forestville,Singapore,73  Kranji Woodgrove,737774 737774",1.43231262563686,103.799346459548,SG
698,"69 Ubi Road 1, 08-31,Singapore,40  Geylang Eunos,408731 408731",1.33175305145453,103.890246452457,SG
699,"5 Pereira Road, Asiawide Industrial Building, 07-02, Singapore, Singapore 368025",1.33746307323482,103.886197423331,SG
700,"320 Yishun Central, Block 320, Singapore 760320 12-331",1.42929160725182,103.841590161063,SG
701,"11 Irving Place Tai Seng Point, 08-05, Singapore, Singapore 369551",1.336132,103.8866,SG
702,Block 399 Yung Sheng Road 01-16 610399,1.334844875,103.720462,SG
703,"50 Playfair Rd, 05-04 Noel building, Singapore 367995,Singapore,83 Yishun Street 81 768446",1.41318207496243,103.835590313717,SG
704,"623 Aljunied Industrial Complex 05-02,Singapore,38  Geylang Eunos,623 Road 389835",1.32490819063998,103.879385375918,SG
705,"198 Boon Lay Dr, Singapore 640198 14-51",1.34441697098204,103.71434478868,SG
706,"530 Sixth Avenue, Singapore 276614, 276614",1.320028821819,103.789095620699,SG
707,"Clementi West Street 2 Blk725, 01-208 120725",1.30351669722259,103.763769901155,SG
708,522C Tampines Central 7 05-37 523522,1.358004372,103.9394158,SG
709,"473 Ang Mo Kio Avenue 10 13-740,Singapore,56  Bishan Kio,473 560473",1.36305703506059,103.856848726494,SG
710,"72 Geylang Bahru, Singapore 11-3000 330072",1.32161634794823,103.871420969295,SG
711,"137 Jalan Bukit Merah, Singapore 08-1386 160137",1.27814915443032,103.826959816505,SG
712,"Primz Bizhub 21 Woodlands Cl,  09-23 737854 · 737854,Singapore,73  Kranji Woodgrove,21 Close",1.435078828,103.8047627,SG
713,"27 Greenwich Drive,  Level 3 Warehouse,,Singapore,53 Serangoon Garden Hougang Ponggol,533912 533912",1.372,103.9095,SG
714,"187 Punggol CENTRAL, 13-271, Singapore, Singapore 820187",1.39871839074509,103.910783039165,SG
715,"19 Kallang Avenue 02-155,Singapore,33  Balestier Toa Payoh Serangoon,19 339410",1.311401268,103.865287,SG
716,580 Yio Chu Kang Rd 02-03 787068,1.38439700448871,103.836183066796,SG
717,"Sennett Estate 9 9, Mulberry Avenue 348354",1.33112724224576,103.875695601853,SG
718,"71 Ubi Crescent , 06-08,Singapore,40  Geylang Eunos,71 408571",1.32686912722277,103.898333225083,SG
719,"21 Tampines North Drive 2, Singapore 528765 06-08 528559",1.3719,103.9339,SG
720,"Singapore,3 Gambas CRESCENT,Nordcom One 02-03  Crescent 757088",1.4441,103.8139,SG
721,"Pasir Ris, Singapore 12-186 510451",1.37148485260582,103.958096936539,SG
722,"517 Yio Chu Kang Road, Singapore 787084",1.3817141709791,103.836903146402,SG
723,"No 11 Joo Yee Road,Singapore,61  Jurong,11 Road 619198",1.32932662201685,103.716443245089,SG
724,Singapore 730663 04-184,1.43621775576528,103.798409777845,SG
725,"1 Tampines North Drive 3,Singapore,52  Pasir Ris,1 3 528499",1.372899,103.9327967,SG
726,"Tampines Avenue 9, Block 496G, Singapore 06-492 523496",1.3607992276029,103.950573417706,SG
727,"461 Tampines Street 44, Singapore 07-56 520461",1.358692,103.9539231,SG
728,"10 Anson Road, International Plaza 凯联大厦, Singapore 29-15 79903",1.2757126347773,103.845909290633,SG
729,"10 Ang Mo Kio Street 65 04-04 Techpoint, Singapore 569059,Singapore,56  Bishan Kio,10 569059",1.3893549947246,103.849277154673,SG
730,"2 Bukit Merah Central, Singapore 11-01 , 1FSS Pte Ltd, FSS-Vendor Mater 159835",1.28421778041752,103.81370314772,SG
731,"80 Changi ROAD, 02-29 The Centropod 419715",1.31632935092307,103.900507381512,SG
732,"245 Bishan Street 22, Singapore 12-312 570245",1.36019474619347,103.844131360015,SG
733,"Bukit Batok West Avenue 8, Blk 439A, Singapore 09-987 651439",1.356821604,103.7403305,SG
734,"24 Penjuru Rd (enter By Close) Cwt Commodity Hub, , 03-04 Sg Singapore, Singapore 609128",1.31492389949701,103.731465749344,SG
735,"88 Jellicoe Road, Singapore 16-23 208747",1.30919627347424,103.862903917807,SG
736,BLK440 Fajar Road 07-450 670440,1.38365656869141,103.770081270687,SG
737,"356B Admiralty Drive, Singapore 05-102 752356",1.449223,103.8173555,SG
738,"27 Woodlands Industrial Park E1, Singapore 757718 02-16",1.45523846595722,103.798058519824,SG
739,"12b Jalan Klapa, Singapore 199324",1.304095,103.8599456,SG
740,"Unity Center 07-03,Singapore,65  Hillview Dairy Farm Bukit Panjang Choa Chu Kang,51 Batok Crescent 658077",1.33767825061798,103.757048882973,SG
741,"Sam Leong Road, Singapore 3 0 207909",1.30946105318168,103.856994261473,SG
742,"3 Depot Close, Singapore 07-01 109840",1.28320616676734,103.806811988168,SG
743,"540 Hougang Avenue 8, Singapore 04-1223 530540",1.3778419,103.8912639,SG
744,224 Woodlands Industrial Park E5 757294,1.45090364289754,103.79249778638,SG
745,Block 645 Yishun Street 61 01-328 760645,1.42186214708626,103.838465779926,SG
746,Block 61 Telok Blangah Heights 01-111 100061,1.27570675625885,103.812005138489,SG
747,"10 Braemar Drive, Singapore 559414",1.36027746216083,103.862990674448,SG
748,"370G Alexandra Road, Singapore The Anchorage, 02-04 159960",1.28891463138311,103.804498159197,SG
749,"Fernvale Lane, Block 404B, Singapore 792404",1.38829507035216,103.873545399558,SG
750,"290 Orchard Rd, 02-47 The Paragon,Singapore,23  Cairnhill River Valley,290 Road 238859",1.30397587005327,103.83589163337,SG
751,"10 Anson Road, Singapore International Plaza, 22-15 79903",1.2757126347773,103.845909290633,SG
752,21 Bukit Batok Crescent 05-75 658065,1.3373758,103.7575878,SG
753,"174a Hougang Avenue 1, Singapore 03-1501 531174",1.34948041306033,103.888602266155,SG
754,"Jalan Tanah Puteh, Singapore 30 457350",1.31601945247699,103.93039814629,SG
755,"71 Lorong 23 Geylang, Singapore Work+Store, 807 388386",1.31626657256365,103.880854815081,SG
756,"59 Jalan Pemimpin, Singapore L&Y Building , 02-02 577218",1.3510818,103.8425524,SG
757,Singapore 750421 Block 421 Canberra Road 11-427,1.45298961922135,103.818530916011,SG
758,"Block 268D, Punggol FIELD, 06-167 Singapore 824268",1.40330038,103.8982485,SG
759,"Bedok Reservoir Road, Belvia 748B Crescent, Singapore 10-49 472748",1.33619782623836,103.921234461573,SG
760,"20 Dedap Road, Singapore 809424",1.3881208093063,103.866608747623,SG
761,"672b Yishun Avenue 4, Singapore 11-552 762672",1.4186,103.8418,SG
762,"1 Genting Lane, 07-03, Singapore, Singapore 349544",1.32882155280917,103.873317186079,SG
763,"Hougang Avenue 5, Block 327, Singapore 03-315 530325",1.36752395209117,103.89863734845,SG
764,Block 322C Anchorvale Drive 12-152 543322,1.39189555449646,103.892099278402,SG
765,"38 Ang Mo Kio Industrial Park 2 Lobby A Level 3 (WPS 341) Intercom Press:  0341, WPS 341 Singapore 569511",1.37659951541292,103.865951787173,SG
766,"175B Punggol Field, Singapore 10-557 822175",1.39773535897217,103.908536541517,SG
767,"100 Commonwealth Crescent, Singapore 09-88 140100",1.30769796190419,103.801269158403,SG
768,705 Sims Drive Shun Li Industrial Complex / 04-12B 387384,1.31804661144138,103.876292257626,SG
769,Blk 4 Toa Payoh Lorong 7 310004,1.339051501,103.8555401,SG
770,"93 Dawson Road, Singapore 34-36 142093",1.2950660736655,103.81154943803,SG
771,"Jalan Damai, Block 668, Singapore 410668",1.33334868476156,103.908903075215,SG
772,"760 Bedok Reservoir Road, Singapore N Blk Lobby 12-13 , 479245",1.33822676748848,103.92990952197,SG
773,"25 Kallang Ave, 02-01,Singapore,33  Balestier Toa Payoh Serangoon,25 Avenue 339416",1.31074234149855,103.866101081804,SG
774,"62 Ubi Road 1, Singapore 08-07  Oxley Biz Hub 2 408734",1.33225897785585,103.89228119852,SG
775,"218a Boon Lay Avenue, Singapore 10-269 641218",1.35,103.7105,SG
776,"Bef Crawford Bridge, Singapore 534119",1.33750180884674,103.889244071506,SG
777,"5A Toh Guan Road East, Singapore 608830",1.3394023956335,103.751129057597,SG
778,"05-01, 49 Pandan Road, Singapore 609290",1.30252932321985,103.746347602242,SG
779,"48 Toh Guan Road East, Singapore 09-123 Enterprise Hub (White & Black Trading) 608586",1.336807,103.754305,SG
780,"21 Pandan Avenue, Singapore 04-08 609388",1.30089813935197,103.748427070289,SG
781,"26 Clover Way, Singapore 579095",1.34926396348542,103.843479441194,SG
782,211 Woodlands Avenue 9 08-77 Spectrum Ii 738960,1.455096019,103.8114,SG
783,Singapore 5220260 Blk 260 Tampines St 21 06-322 520260,1.35464523749768,103.950102179065,SG
784,"315B Anchorvale Road, Singapore Unit 13-172 542315",1.39215558238643,103.888459408327,SG
785,Blk 733 Yishun Ave 5 12-372 760733,1.429656636,103.830886,SG
786,456 Corporation Road 07-07 649813,1.34424334941049,103.717536434707,SG
787,Singapore 550237 237 Serangoon Ave 3 01-128,1.35366188810572,103.86997771426,SG
788,"1 Rochor Canal Road, 03-11 Sim Lim Square,Singapore,18  Middle Road Golden Mile,1 188504",1.303022984,103.8530387,SG
789,"1 Rochor Canal Road 02-26 Singapore 188504,Singapore,18  Middle Golden Mile,1 188504",1.30302298401639,103.853038663305,SG
790,Blk 8B Upper Boon Keng Road 26-528 382008,1.31245374014966,103.870051873353,SG
791,"40 Jalan Pemimpin, Tat Ann Building 04-06A 577185",1.34866069486678,103.842246634274,SG
792,"550 Woodlands Drive 44, Singapore 10-82 730550",1.43281489075281,103.794781983683,SG
793,"12 Wilkinson Road, Singapore 436670",1.30329035728241,103.895334909682,SG
794,"371 Beach Road, Singapore 01-32 199597",1.3022946,103.8623895,SG
795,"462b Yishun Avenue 11, Singapore 762462",1.427135048,103.8502345,SG
796,"11 Syed Alwi ROAD, Teck Heng Long Building 02-03,Singapore,20  Little India,11 Road 207629",1.306798964,103.858184,SG
797,"608 Hougang Ave 4, 03-153, Singapore, Singapore 530608",1.37084468446791,103.88543098939,SG
798,"66 Marine Parade road,Singapore,44  Katong Joo Chiat Amber Road,449300 449300",1.30060306480634,103.904605107258,SG
799,"1 Tampines North Drive 1, Singapore T-SPACE 01-05 528559",1.3719,103.9339,SG
800,"829 Yishun Street 81, Singapore 760829 05-514",1.41464978187419,103.833140490202,SG
801,"52 Tanah Merah Kechil Avenue, Singapore 01-06 Casamerah 465525",1.32967542022186,103.945417864328,SG
802,"1 Jln Anak Bukit, Singapore 588996 B1-15",1.33863165188339,103.778585430913,SG
803,"37 Circuit Rd, Block 37, Singapore 370037 Blk 07-433 ",1.32817782361083,103.886478352554,SG
804,"33 Jalan Singa, Singapore 418109",1.33017238893463,103.908320667194,SG
805,"211A Compassvale Lane, Singapore 10-200 541211",1.38465544549194,103.899259413729,SG
806,"1 Northpoint drive, City, South Wing B2-108/112, 760151",1.43080845445709,103.834268579651,SG
807,"Potong Pasir Avenue 1, Singapore Blk 108, 08-486 350108",1.33501639190199,103.867776623942,SG
808,"530 Bedok North Street 3, Singapore 06-644 460530",1.33372013783852,103.927012791936,SG
809,"14 Scotts Road, Singapore 05-73 Far East Plaza 228213",1.30724675158526,103.833664932435,SG
810,Singapore 425236 03-02,1.30998238463307,103.915383361679,SG
811,"1 Rochor Canal Road Sim Lim SQUARE, 01-39, Singapore, Singapore 188504",1.30302298401639,103.853038663305,SG
812,"21 Hazel Park Terrace, Singapore 13-07 678946",1.37392914701963,103.765236050893,SG
813,"60B Fulton Road, Singapore 578966",1.36071373874035,103.834618710032,SG
814,61 Ubi Road 1 01-14 408727,1.33165602632244,103.890459062034,SG
815,"263 Tampines Street 21, Singapore 520263 04-150",1.3532970302818,103.951491025064,SG
816,"10 Clover Crescent, Singapore 579186",1.34989502084456,103.843900887816,SG
817,"12A Lorong Biawak, Singapore 358776",1.34797259036569,103.870285519539,SG
818,"11 Woodlands Close, 07-09 737853",1.43475841107225,103.802721055594,SG
819,"772 Yishun Ave 3, Singapore 760772 03-213",1.42366,103.83258,SG
820,"05-01, 49 Pandan Road, Singapore 609290",1.30252932321985,103.746347602242,SG
821,"11 Haig Road, Singapore 02-375 430011",1.31465171459212,103.896631605428,SG
822,Singapore 560219 04-843,1.36597867116047,103.84064948154,SG
823,91 Holland Grove View 276248,1.31282908664218,103.781100885866,SG
824,"Singapore,Singapore,75  Yishun Sembawang,200 Woodlands Industrial Park E9 757877",1.45028036515276,103.798669976116,SG
825,"150, Ubi Avenue 4, 04-01, Singapore 408825,Singapore,150 4 408825",1.3344099847748,103.89621808054,SG
826,"130b Lorong 1 Toa Payoh, Singapore 37-512 312130",1.33737930538713,103.842653920712,SG
827,"10 Changi South Lane,  07-02, Singapore, Singapore 486162",1.33107944864899,103.951919453272,SG
828,"45 Ubi Road 1 03-01 Singapore 408696,Singapore,45 408696",1.32956625343914,103.891494466658,SG
829,"Rivervale Drive, Singapore 07-525 540145",1.3894853697098,103.906183719941,SG
830,"18 Jalan Lembah Kallang 03-01,Singapore,33  Balestier Toa Payoh Serangoon,18 339573",1.3142799084892,103.863135540998,SG
831,"1 Robin Drive, Singapore 05-02 258261",1.31934224638349,103.827861285244,SG
832,Blk 5059 Ang Mo Kio Industrial Park 2 01-1267 Singapore 569562,1.37469367377527,103.859866054441,SG
833,"Blk 406 Fajar Road, 10-295, S670406,Singapore,67  Hillview Dairy Farm Bukit Panjang Choa Chu Kang,406 Road 670406",1.38185149440799,103.767575471539,SG
834,"Blk 15, Ghim Moh Garden 06-17 270015",1.30915039735441,103.788425610369,SG
835,"World Fashion Logistics (C/O LOCAD), 5A Toh Guan Road East 02-01B,Singapore,60  Jurong,5A 608830",1.3394023956335,103.751129057597,SG
836,"208 Boon Lay Place, Singapore 604208",1.288147,103.740233,SG
837,"100D Pasir Panjang Road, Singapore 04-01, Meissa 118520",1.2761604,103.7962274,SG
838,"2 Bukit Panjang Ring Road, Singapore 02-05 679947",1.378266,103.772467,SG
839,4008 Ang Mo Kio Avenue 10 Techplace I 02-21 569625,1.3598822958827,103.856387793071,SG
840,"8 Hougang Street 92, Singapore 538686 Tower 4 11-08",1.37456334672802,103.877528880222,SG
841,"123 Teck Whye Ln, Block 123, Singapore 680123 03-860",1.37919580837401,103.749458909247,SG
842,"Jalan Jurong Kechil, Singapore 120 598615",1.34177533586768,103.77147657795,SG
843,"09-09, 315 Outram Rd, Singapore 169074 Tan Boon Liat Building 09-09",1.28752067818494,103.834076071505,SG
844,"Hougang Ave 8 Block 660 Level 7-483,Singapore,660 Avenue 530660",1.3736483333344,103.882871073956,SG
845,"306 Tampines Street 32, Singapore 03-12 520306",1.35292805389607,103.955753180247,SG
846,"Block 30, Defu Lane 10 Singapore 539211",1.35232233890208,103.892309433786,SG
847,Block 407 Tampines Street 41 Sun Plaza Green 520407,1.358189094,103.9450211,SG
848,"153 Joo Chiat Place, Singapore 427881",1.31403623960367,103.903878529101,SG
849,Sembawang Crescent Blk 338 14-160 14-160 750338,1.44574156445832,103.815319561161,SG
850,"164 Bedok South Road, Singapore 12-418 460164",1.32010426106995,103.946570310334,SG
851,Singapore 529653 Ntuc Income Junction 08 - 1,1.35233323699293,103.941942185271,SG
852,"58 Jalan Kelichap, Singapore 534276",1.34687232632505,103.882226606132,SG
853,"48 Mactaggart Rd, Singapore 368088 06-02",1.3344046,103.883362,SG
854,"897a Tampines Street 81, Singapore 09-706 521897",1.34749313843818,103.935189520446,SG
855,Block 251 Hougang Avenue 3 02-376 530251,1.35996061583881,103.891628260161,SG
856,"11 Parbury Avenue, Singapore 467286",1.31674430845597,103.942589207881,SG
857,"1 Jalan Anak Bukit, Bukit Timah Plaza 588996",1.33863165188339,103.778585430913,SG
858,"25 Changi South Ave 2
1st Floor , Cargo lift, 01 Singapore 486594",1.331571139,103.9683739,SG
859,Blk 4 Toa Payoh Lorong 7 07-127 310004,1.33905150050748,103.855540139933,SG
860,"152 Jalan Senang, Singapore 653439",1.357628613,103.7388575,SG
861,"2 Yishun Industrial Street 1, Singapore 01-06 768091",1.43764051294192,103.844520852963,SG
862,"519 Bedok Reservoir Road, Singapore 05-69 479278",1.33904551115402,103.919310335126,SG
863,"1 Enterprise Road, Singapore 629813",1.33242418762382,103.707882038563,SG
864,"133 New Bridge Road  01-25 Chinatown point,Singapore,05 Raffles Place Cecil Marina People's Park,133 59413",1.285338949,103.8450156,SG
865,Singapore 639450 Hart Engineering Pte ltd，11 Tuas Avenue,1.32413970971336,103.652844605361,SG
866,"Blk 188A Rivervale Drive 15-1082,Singapore,188A 541188",1.39424337187937,103.905163198126,SG
867,Singapore 560259 24-02,1.36847516852188,103.831556309002,SG
868,"413 Pasir Ris Drive 6, Singapore 03-337 510413",1.37268443632178,103.955506746797,SG
869,"Block 939 Tampines Avenue 5,  06-171 520939",1.34812321168807,103.941241973795,SG
870,"66 Bayshore Road, Singapore 20-04 469985",1.31076920841237,103.938014268109,SG
871,"82b Toa Payoh Central, Singapore 05-498 312082",1.33560876590289,103.848863776576,SG
872,Block 804 Yishun Ring Road 13-4311 760804,1.41778641648871,103.831596604305,SG
873,"67 Jalan Asas, Singapore 678821",1.36012578851419,103.767841038877,SG
874,"80 Lorong K Telok Kurau, Singapore 03-02 Espira Residence 425710",1.31290512226342,103.912333480637,SG
875,"Blk 726 Woodlands CIRCLE, 03-146 730726",1.44427656608636,103.799681432906,SG
876,"38 Ah Hood Rd, Singapore 09-08 329981",1.32847281013294,103.848358641467,SG
877,Block 365 Tampines Street 3402-157  02-156 520365,1.35768611958352,103.960620745604,SG
878,"900 Dunearn Road, Singapore Lobby F, 04-14 589473",1.33685005932227,103.782569269724,SG
879,"21 Fernvale Road, Singapore High Park Residences  13-05 797637",1.396389613,103.8751328,SG
880,"Block 3C, Upper Boon Keng ROAD, Lobby 383003",1.31373057698448,103.87300211726,SG
881,Singapore 130003 Dover Court,1.30373841027961,103.782444888001,SG
882,"Kallang Bahru, Singapore 03-329 Blk65 330065",1.31971591921883,103.868362582557,SG
883,"Block 987D, Jurong West Street 93, 04-593 644987",1.33659127680157,103.695378297589,SG
884,"Ubi Techpark, Singapore 408564",1.32627524065888,103.896130679819,SG
885,"39 Woodlands Close, Singapore 08-58 Mega@Woodlands 737856",1.438,103.8068,SG
886,"1 Irving Place, Singapore 08-01 The Commerze @ 369546",1.33623850604588,103.886417536568,SG
887,"Irrawaddy Road, Mount Elizabeth Novena Hospital, Singapore 329563",1.322236,103.8440388,SG
888,"Blk 470 Ang Mo Kio Ave 10, Singapore 07-916 560470",1.36408620221385,103.856692400898,SG
889,"Block 395 Bukit Batok West Avenue 5, 13-434 Singapore 650395",1.3663169,103.7522876,SG
890,"70 Trevose Crescent, Singapore 04-03 298071",1.32466726461056,103.825758627118,SG
891,"503 Jelapang Road, Singapore 09-366 670503",1.38418264022465,103.76643126604,SG
892,"Block 546, Bedok North Street 3, 12-1416 Singapore 460546",1.33081607192216,103.925596609229,SG
893,"18 Boon Lay Way, Tradehub 21 08-139,Singapore,60  Jurong,18 Way 609966",1.328247028,103.7536,SG
894,Blk 125 Pasir Ris Street 11 11-405 510125,1.36613801933575,103.954481485606,SG
895,2 Petir Road Maysprings Condominium 10-08 Lobby “B” 678265,1.37728764403835,103.763431985138,SG
896,"27 New Upper Changi Road, Singapore 03-676 462027",1.32411374291631,103.934914627846,SG
897,"1D Pine Grove, Singapore, 14-15 593001",1.31770177417983,103.7744410812,SG
898,Block 671 Jalan Damai 410671,1.332449919,103.9088722,SG
899,"Albert Street, Og Retail & Office Leasing, Singapore 189969",1.30237807546684,103.853794531196,SG
900,"81 Clemenceau Ave 03-20A,Singapore,23  Orchard Cairnhill River Valley,239917 239917",1.2921646604826,103.842695798518,SG
901,"21 Changi North Way, Pan Asia Logistics Centre, Singapore  498774",1.35337485008745,103.974113235437,SG
902,"56 Lorong 4 Toa Payoh, Singapore 03-23 310056",1.33702967523549,103.850375268311,SG
903,"348 Jurong East Ave 1, Block 348, Singapore 600348 03-1245",1.34457596467676,103.731073835561,SG
904,"438B Alexandra Road,  Singapore 119968 Technopark Tower B, 06-04.",1.27739865163487,103.799422510378,SG
905,"Compassvale Walk, 7-Eleven, Singapore 540236",1.39047673013055,103.899435581062,SG
906,"701 West Coast Road, Singapore 03-325 120701",1.30760067404556,103.761368741882,SG
907,445 Fajar Shopping Centre 01-522 S670445 670445,1.38374467529836,103.770754691929,SG
908,"160 Kallang Way , Lobby C Storhub Building, 01-01 Singapore 349246",1.32282007455906,103.875774627535,SG
909,"Blk 290B Bukit Batok St 24, Unit 02-65, Singapore, Singapore 653290",1.34368697797551,103.756624314337,SG
910,"3 Ang Mo Kio Street 62 07-07 LINK@AMK Singapore 569139,Singapore,56  Bishan Kio,3 569139",1.38645291189388,103.844788849524,SG
911,"Rivertrees RESIDENCES, 21 Fernvale CLOSE, 15-03 , Singapore, Singapore 797460",1.394,103.8812,SG
912,"Rivervale drive, Block 188b  16-1074 542188",1.39492789666027,103.905297939247,SG
913,"139 Kaki Bukit Avenue 1, Singapore 03-01 416004",1.33664418442181,103.911461036104,SG
914,"10 Bayfront Avenue, Singapore Hotel 3 lobby, Marina Bay Sands 18956",1.28225028515239,103.858300275795,SG
915,"Noble Logistics, 49 Tannery Lane 03-07B,Singapore,34  Macpherson Braddell,347796 347796",1.32771350790348,103.878066488851,SG
916,Block 476B Upper Serangoon View 16-528 532476,1.3773284515228,103.904212191197,SG
917,"Blk 966 Jurong West St 93, 06-221 , Singapore, Singapore 640966",1.34172159440632,103.692916949379,SG
918,"20 Gul Way, Singapore 01-07/08 629196",1.3131751,103.6679951,SG
919,Block 773 Bedok Reservoir View 10-129 470773,1.33639740241064,103.937330507848,SG
920,8A Hougang Street 11 07-26 534081,1.35141942042394,103.882395947579,SG
921,Block 539 Hougang Street 52 B1-48 530539,1.37747963050334,103.89034042369,SG
922,"793 Yishun Ring Rd, Singapore 760793 03-3482",1.42051601575031,103.831865958094,SG
923,Blk 654 Senja Road 10-250 670654,1.38761554430263,103.764141815414,SG
924,"362A Sembawang Cres, Singapore 11-853 751362",1.447194851,103.814008,SG
925,"Krishiv International Pte Ltd,1 North Bridge Road, 16-08, High Street Centre,Singapore,17  Beach Road (part),1 179094",1.29003756363872,103.849210633411,SG
926,"1 Orchard Road, Singapore 238824, Level 3 238824",1.29767221552972,103.848084310844,SG
927,"12 Tai Seng Street Luxasia BUILDING, 06-05 534118",1.3377333243684,103.88816335663,SG
928,"52 Bukit Batok Street 31, The Madeira  19-12 659443",1.35740616775081,103.749972405989,SG
929,"304 Clementi Avenue 4, Singapore 120304",1.3207785,103.7658952,SG
930,"20 Joo Seng Road, Singapore 06-132 360020",1.33405762603571,103.881364167755,SG
931,"Punggol Central, Waterway Point, Singapore 828761",1.40627620144483,103.902227889613,SG
932,"18 Sin Ming Ln, Singapore 06-10/11 573960",1.35821656833273,103.833930709931,SG
933,Singapore 730513 Blk 513 04-207,1.43379678664149,103.789456762284,SG
934,29 Ubi Crescent 408582,1.32729108755051,103.895201107955,SG
935,"Ghim Moh Road, Block 6, Singapore 270006 13-186",1.31229299827937,103.788402885792,SG
936,"120 Mcnair Road, Singapore 15-87 320120",1.3192450233731,103.856873784977,SG
937,"670A Edgefield Plains, Singapore 04-614 821670",1.40531154286203,103.912849889578,SG
938,"207 Balestier Road, 01-01, Singapore, Singapore 329683",1.320970443,103.8524475,SG
939,"105 Petir Road, Singapore 15-11 678274",1.36877192473661,103.777052789966,SG
940,"465 River Valley Road, Singapore 04-16,RV Residences 248350",1.29434065542448,103.828445396802,SG
941,"Blk 427 Bt Panjang Ring Rd , 02-697, Singapore, Singapore 670427",1.38637109292489,103.769811401271,SG
942,Singapore 640414,1.35280889906582,103.726033161655,SG
943,"150, Ubi Avenue 4, 04-01, Singapore 408825,Singapore,40  Geylang Eunos,408825 408825",1.3344099847748,103.89621808054,SG
944,"63 Hillview Avenue 07-12A/B, Lam Soon Industrial Building,Singapore,63 669569",1.3570695902287,103.763584067042,SG
945,Block 2B Upper Boon Keng Road 04-684 382002,1.31361850333729,103.871519938985,SG
946,Block 225 Pasir Ris Street 21 510225,1.371157585,103.9611181,SG
947,"Sin Ming Avenue, Block 441, Singapore 01-417 570441",1.3590868,103.8315436,SG
948,1 Raffles Link Singapore 39393,1.29205317112509,103.855850274709,SG
949,Singapore 152075 06-64,1.2884088996918,103.815864600724,SG
950,"200 Victoria Street, Bugis Junction
, 02-11B, Singapore, Singapore 188021",1.29906798174581,103.855327951802,SG
951,"Singapore 521168 04-38,BLK 168A,Simei Lane,PARC Lumiere",1.34269627171255,103.958905063227,SG
952,1RochorCanalRoadSimLimSquare0668SingaporeSingaporeSingaPore 188504,1.30302298401639,103.853038663305,SG
953,30 Bukit Sedap Road 279926,1.32131124356154,103.784423752302,SG
954,288A Punggol Place 10-807 821288,1.40224601706505,103.903147249155,SG
955,"201 Victoria Street BUGIS+ (Level 3, Across From Cue Guru 03-19) 188067",1.29963881,103.8543046,SG
956,"04-525, Blk256 Simei Street 104-525, 520256, Singapore, Singapore 520256",1.34302556617091,103.951759832383,SG
957,"Blk 183 Jelebu Road , 26-40, Singapore, Singapore 670183",1.37986533838982,103.763052566404,SG
958,"21 Pandan Avenue, 04-05,Singapore,60  Jurong,21 Avenue 609388",1.300898139,103.7484271,SG
959,"5 Hullet Road, Singapore 17-10 229161",1.30405006306453,103.838382556046,SG
960,"5 Ang Mo Kio Industrial Park 2A, Singapore 06-19/20/21 567760",1.37805004988272,103.870460646264,SG
961,"32 Eng Hoon Street, European Bedding - Level 2,Singapore,24  Ardmore Bukit Timah Holland Road Tanglin,248348 169780",1.28372731937317,103.834617006341,SG
962,"Block 602 Hougang Avenue 4 01-K1, 530602",1.3712280203234,103.886918749171,SG
963,"30 Marsiling Industrial Road 5 02-10,Singapore,73  Kranji Woodgrove,30 Ind Estate 739211",1.44211854,103.7831449,SG
964,"Bright Diva Pte. Ltd. 1 North Bridge Road, 11-03, High Street Centre, Singapore 179094,Singapore,1 Road 179094",1.29003756363872,103.849210633411,SG
965,"Woodlands Close  11 Singapore, 11, Singapore 737853",1.43475841107225,103.802721055594,SG
966,"4 Leng Kee Road, Singapore 03-09 Sis Building 159088",1.2911313514759,103.814335906401,SG
967,Block 468B Admiralty Drive 02-29 752468,1.450050726,103.814223,SG
968,21 Pandan Avenue 609388,1.3008982,103.7484271,SG
969,"105 Ang Mo Kio Avenue 4, Singapore 10-206 560105",1.3718506,103.8368686,SG
970,99 Onan Road 424517,1.31419539336059,103.898341679188,SG
971,"2 Marne Road, Singapore 01-03 208393",1.31291744515327,103.856916740115,SG
972,"1 Paya Lebar Crescent, Singapore 05-02 536019",1.34981353786369,103.880745484938,SG
973,"503 Jelapang Road, Singapore 07-368 670503",1.38418264022465,103.76643126604,SG
974,"656c Jurong West Street 61, Singapore 09-313 643656",1.33598699229547,103.699971505584,SG
975,"20 Gul Way, 01-07/08 Singapore 629196 Loading Bay 1 To 8,Singapore,62  Jurong,20 Way",1.31288024332993,103.668763005843,SG
976,"3 Woodlands Sector 1, Singapore 738361",1.4524629578955,103.804996387172,SG
977,"471B Upper Serangoon Crescent, 08-374, Singapore, Singapore 532417",1.288147,103.740233,SG
978,21 Pandan Avenue 04-05 609388,1.30089813935197,103.748427070289,SG
979,"118 Edgefield Plains, Singapore  10-306 820118",1.39626255870995,103.906264525259,SG
980,"211 Ang Mo Kio Avenue 3, Singapore 08-1420 560211",1.36919413145687,103.841667431941,SG
981,"31 Woodlands Close Horizon, 01-01, Singapore, Singapore 737855",1.43686158492125,103.805998504039,SG
982,1 Soon Lee Street Pioneer Centre /  02-24 627605,1.33262087150487,103.697796583657,SG
983,"162 Bukit Merah Central, Singapore 05-3555 150162",1.28383750409133,103.817465377767,SG
984,Block 483 Pasir Ris Drive 4 05-477 510483,1.37403826077584,103.959999561216,SG
985,"716 Woodlands Drive 70, Block 716, Singapore 730716 11-124 544615",1.398174852,103.8922497,SG
986,"23 Telok Blangah Cres, Block 23, Singapore 90023 07-30",1.27606547856999,103.820834902754,SG
987,981 Upper Serangoon Road 01-01 Suites @ Kovan 534729,1.362098419,103.8868398,SG
988,"2 Kallang AVE, 06-22 339407",1.31222599948572,103.862854691281,SG
989,"Penjuru Lane, 40 Lane - Space For Rent, Singapore Major Consolidation (S) Pte LTD. No Block 1 04-01 (Bay 4&5) 609216",1.31019952632448,103.729360089178,SG
990,"161 Lavender Street, 01-06 338750",1.31294835092003,103.860789711693,SG
991,"Kent Ridge Road, Nuhs Tower Block, Singapore 119228",1.29245089069613,103.783335857208,SG
992,"37 Kallang Pudding Road 09-06, Tong Lee Building Block B 349315",1.32953857466671,103.878517083361,SG
993,"70 Alps Avenue, Singapore 03-06 498801",1.3760821,104.001142,SG
994,"672c Yishun Avenue 4, Singapore 03-560 763672",1.4184,103.8427,SG
995, 175 South Bridge Road 58740,1.284095,103.846399,SG
996,"101 Upper Cross Street 02-55 People's Park Centre,Singapore,05  Raffles Place Cecil Marina Park,531A 51531",1.28529507878958,103.84582428335,SG
997,"1 Sorby Adams Drive, Singapore 357689",1.33416541043271,103.863673582011,SG
998,"52 Strathmore Avenue 03-239,Singapore,14  Queenstown Tiong Bahru,52 141052",1.29331488169917,103.808250211279,SG
999,"Jalan Kathi, 8B 468660",1.32374475152607,103.952320970254,SG
1000,"Tanah Abang Blok B Lantai 3A Los F 16-18,DKI Jakarta,Kota Jakarta Pusat,Tanah , Kota Pusat Dki 10250",-6.18796,106.814688,ID
1001,"Kp Ciloa2 No 4 Rt 3 Rw 11 Panyocokan (Masuk gang), CIWIDEY, KAB. BANDUNG, Jawa Barat Ciwidey Bandung 40362",-7.117716764214584,107.421343128402,ID
1002,"Jalan Harapan Mulya Regency, Kecamatan Tarumajaya, 17213 , Tarumajaya Kab. Bekasi Jawa Barat",-6.1332175,106.9927454,ID
1003,JL. KH. Ahmad Dahlan V Bringin Townhouse D9 Beji Kota Depok Jawa Barat,-6.368557742,106.8151348,ID
1004,"Manduraga Rt05 Rw01 · Manduraga,Jawa Tengah,Kab. Purbalingga,Kalimanah Kalimanah Kab. Purbalingga Jawa Tengah",-7.417964303,109.3243634,ID
1005,"Kp. Gaga Rt. 2 Rw. 3 Desa. Pantai Mekar Kec. Muara Gembong Kab. Bekasi · Mekar,Jawa Barat,Kab. Bekasi,Muara , Jawa Barat",-5.994852047621831,107.0251695709685,ID
1006,"-- Jl. Pluto I No.26, Pisangan, Kec. Ciputat Tim., Kota Tangerang Selatan, Banten 15419, Indonesia Kecamatan Timur Selatan",-6.320789556282173,106.77457501593346,ID
1007,"Komplek Pajak . Jl. Raya No. 98, Patokan Diatas Steam Motor , Pondok Aren Tangerang Selatan Banten 15223",-6.25089228520042,106.735150963068,ID
1008,"Jl. Sunter Hijau 1 Blok A1 No.2, Jaya, Tanjung Priok, Jakarta, 14350 Jakarta",-6.1576,106.87647,ID
1009,"Paviliun Novena Jl. Sembada No.8, Kledokan Caturtunggal (Kamar No.7), DEPOK, KAB. SLEMAN, Di Yogyakarta , Depok Sleman 55283",-7.7744737,110.4115498,ID
1010,"Jl. Imam Bonjol, Perumahan Pesona Wisata Blok Ii A No.22 (Pagar Warna Hijau Pemecutan Klod Denpasar Barat Bali 80119",-8.7013906,115.1858427,ID
1011,"Banyuurip Alit 3c No.64,Jawa Tengah,Kota Pekalongan,Pekalongan Selatan Pekalongan Kota Jawa Tengah",-6.9213592,109.681787,ID
1012,"Jl. Celeban No.484, Tahunan, Kec. Umbulharjo, Kota Yogyakarta, Daerah Istimewa Yogyakarta , Umbulharjo D.I.",-7.807307999999999,110.3848281,ID
1013,"Desa Arjasa, Kec Sumenep",-6.2146086,106.8451709,ID
1014,"Jalan Ganjuran XIV, RT.7/RW.3, Adipala, Godean, GODEAN, KAB. SLEMAN, Di Yogyakarta Godean Sleman 55564",-7.769345188744718,110.30017706754742,ID
1015,"Jalan Jagiran No 48, TAMBAKSARI, Kota SURABAYA, Jawa Timur , Tambaksari Surabaya 60136",-7.255094405352175,112.75949747802916,ID
1016,"Jl. Raya Bukit Baja Sejahtera 3 No.07 blok.E (16/05) Sebrang Bidan Pelangi medika, CILEGON, Kota Banten , Cilegon 42415",-6.02978,106.04317,ID
1017,"Jl Haji Montong No 4c Rt07/03 Ciganjur Jagakarsa Jaksel 12630 , Kota Administrasi Jakarta Selatan Dki",-6.336859483210042,106.80998258292676,ID
1018,"Jln Tabing Blok L No 125  (belakang Sekolah Mahatma gandhi) Jakarta P -- Jl. Tabing, Gn. Sahari Utara, Kecamatan Sawah Besar, Kota Pusat, Daerah Khusus Ibukota Jakarta, Indonesia , Besar Pusat",-6.15288826373356,106.8396023792802,ID
1019,"Desa Suwayuwo Rt 1 Rw Kec Sukorejo Kabupaten Pasuruan Area Masjid Nailul falah, SUKOREJO, KAB. PASURUAN, Jawa Timur 67161",-7.688824131365672,112.70820350301436,ID
1020,"Indonesia · Kaliwedi Lor,Jawa Barat,Kab. Cirebon,Kaliwedi , Kab. Cirebon Jawa Barat",-6.5887572,108.3830983,ID
1021,"Kp Baru Jalan Gang Haji Gareng Rt 10 Rw 5 No 53, Kebon JERUK, Kota Jakarta BARAT, Dki Barat 11560",-6.22049550906997,106.76949293657462,ID
1022,Jln Jembatan besi1 rt03 rw01 Nomer 7 Tambora Jakarta Barat Patokan Raja Setim Pinggir Kali Kota Administrasi Dki,-6.149635,106.794936,ID
1023,jln.Raya Cagar Alam Selatan gg.balong sari.1 Rt.001 Rw 5 No.56 Pancoran Mas Depok Kota Jawa Barat,-6.4115023,106.8104288,ID
1024,"jl. Cilandak V No 17 A3 Rt 002/013, Barat Jaksel ( Depan Lapak Besi) - Rumah Bapak Alm. Yudi , Kota Administrasi Jakarta Selatan Dki",-6.2871907,106.7979795,ID
1025,Jl. Duren Tiga Selatan Gg H. Aseni Rt 9 Rw 2 No 29A Kalibata Pancoran Jakarta 12740 Wa (085921839384) Kota Administrasi Dki,-6.258924899999999,106.8359554,ID
1026,"Apples Studio JL. Rukem 1 NO. 8 Rt 9 Rw , RAWAMANGUN, Jakarta Timur Kec. Pulo Gadung, Kota Kab. Dki Jakarta, 13220 Telepon Handphone 87788689075 ( Nomor Ada Dua rumah, Cari Yg ) Gadung",-6.20045384215862,106.887295246124,ID
1027,"Bojongnangka Padasuka (konter 2 Depan Indomaret) · Padasuka,Banten,Kab. Serang,Petir Petir Kab. Serang Banten",-6.2476992,106.193384,ID
1028,"Pasar Induk Rau Serang Banten  · Cipocok Jaya,Banten,Kota Serang,Cipocok Jaya Kota",-6.143358969,106.1820922,ID
1029,"Mbak Alma (Alifa Syifa/Momkidmarket). Toko Tutup 17 (hari biasa) Dan 15 Sabtu). Hari Minggu Libur. Jika Gojek Atau Grab Tidak Bisa Datang Sebelum tutup, Maka Mohon Membatalkan Pickup. Alamat  Jl. Reformasi Raya No.63 RT. 06/ 02, Pd. Aren, Kot Pondok Aren Kota Tangerang Selatan Banten",-6.265750894238934,106.71495789496772,ID
1030,"Jln.siti Purnama Rt/05 Rw/03 Dsn Kilayugung Desa Kawalimukti kec.kawali kab.ciamis · Kawalimukti,Jawa Barat,Kab. Ciamis,Kawali Kawali Kab. Ciamis Jawa Barat",-7.183625142,108.3667261,ID
1031,"Jl Pahlawan Baru Posong Kulon Rt 8 Rw 2 Desa Arjawinangun Kec Patokan per3n Alfamart · Arjawinangun,Jawa Barat,Kab. Cirebon,Arjawinangun Kab. Cirebon Jawa Barat",-6.633079519,108.4001887,ID
1032,"-- Jl. Garuda Iii No.10, Rempoa, Kec. Ciputat Tim., Kota Tangerang Selatan, Banten 15412, Indonesia , Kecamatan Timur Selatan",-6.293458022593184,106.75596779239616,ID
1033,"Kp Cipicung Rt 3 Rw 13 Kontrakan Haji Dadan No 8 · Sadu,Jawa Barat,Kab. Bandung,Soreang Soreang Kab. Bandung Jawa Barat",-7.025202,107.525908,ID
1034,Jl Daan Mogot No 119 Blok e9 Komplek Aldiron Hero,-6.164993356,106.7784393,ID
1035,"Perumahan Bumi Orange, Jalan Kakao I Blok c4 No.17, Cimekar, Cileunyi (Blok No 17), CILEUNYI, KAB. BANDUNG, Jawa Barat Bandung 40624",-6.951700380298636,107.72898423184098,ID
1036,"Bumi Cipondoh Asri, Blok A No.3, RT.007/RW.002, Poris Plawad Utara, Kec. Kota Tangerang - Banten (DEPAN Bidan LELI) Tembok Pink Id 15141",-6.18627763902029,106.66189871234845,ID
1037,"Dukuhan, Desa Pacul , Jl Monginsidi, Rt 015/RW 003, Kel. Pacul, Kec. Bojonegoro Kab. 62114 Jawa Timur Indonesia",-7.1788298,111.8786988,ID
1038,"Jl. Pahlawan No.51, RT.1 · Manguharjo,Jawa Timur,Kota Madiun,Manguharjo Manguharjo Kota Madiun Jawa Timur",-7.624154,111.5092719,ID
1039,"Jl. KH. Noer Ali, Jakasampurna, Bekasi Bar., Kota Bks, Jawa Barat 17211 88888",-6.368027,106.859491,ID
1040,K2 Susu  jl. Mutiara Dongkal no.27A-Rt.005/005-pondok Jagung Timur Serpong Utara Kota Tangerang Selatan Banten,-6.248837199999999,106.6673186,ID
1041,"Jalan Nirwana 28 Tanjung Priok 14340 Sunter Paradise 3 Blok D No 27 , Kota Administrasi Jakarta Utara Dki",-6.13001173947827,106.86339307576418,ID
1042,"Pedongkelan Baru Rt 18 Rw 16 No 87 Kel Kapuk Kec cengkareng, CENGKARENG, Kota Jakarta BARAT, Dki , Cengkareng Barat 11720",-6.138654,106.744569,ID
1043,"Blimbing, Malang City, East Java, Indonesia Waroeng tongkrongan,  Ruko Taman Raden Intan Kav G, arjosari, blimbing. 65126",-7.932925,112.65722,ID
1044,"Perumahan Metland Puri Cluster Clematis, Jl. Bogenvil Elok 1 Blok F5 No. 26, Petir, Cipondoh, Kota Tangerang, Banten, Indonesia, 15147 Jakarta",-6.1907659,106.7099054,ID
1045,"Jl.rawa Bebek Rt 1 / Rw 12 no.30, PENJARINGAN, Kota Jakarta UTARA, Dki Penjaringan Utara 14440",-6.1267415,106.782443,ID
1046,"Jl. Jiban Iii Rt.004/Rw.001 No.17, Kebayoran Lama - Jakarta Selatanpatokan (Gang Samping Warung Ibtisamah, Gapura Yang Ada Tanaman Pot Gantung Tidak Jauh Dari Gang 100 meter. Tanya : Rumah Pak ilyas) , Kota Administrasi Selatan Dki 12220",-6.234928129425168,106.78248357027768,ID
1047,"nganjuk,Jawa Timur,Kab. Nganjuk,Berbek Berbek , Kab. Nganjuk Jawa Timur",-7.6043721,111.8993478,ID
1048,"Kios (JEJER) Depan Smp N 1 Manyaran .KIOS Pradipta Dinamo (KIOS Dari Kiri NO.3)  , MANYARAN, KAB. WONOGIRI, Jawa Tengah Wonogiri 57662",-7.824389199922872,110.80106014339404,ID
1049,"Jl Sadang , Gg Maesih No 20 Sebelah Kantor desa, Rmh Abu Pager Hi -- Jl. No.90, Margahayu Tengah, Kec. Margahayu, Bandung, Jawa Barat 40225, Indonesia Kecamatan Bandung",-6.959621872755988,107.56841946975432,ID
1050,"Sebelah Gudang Transir Si Cepat. Sunter Agung, Tj. Priok, Kota Jkt Utara, Daerah Khusus Ibukota Jakarta Tanjung Priok Administrasi Utara Dki",-6.126587,106.857544,ID
1051,"Jalan. Nagrog Komplek Grand Valley Blok E2 No. 12, Ujung BERUNG, Kota BANDUNG, Jawa Barat , Berung Bandung 40617",-6.909949,107.715468,ID
